fid,name,type,zip,addr1,addr2,lon,lat,tel,city,gugun,date
1,보령배드민턴구장,기타시설,33481,충청남도 보령시 명천동 1089-1,,126.6099131,36.34411406,041-930-3329,충청남도,보령시,20240521
2,(덕전3리) 세송,간이운동장,39569,경상북도 김천시 대항면 덕전리 1060-1,맞은편,128.0409498,36.12532065,054-421-2165,경상북도,김천시,20130101
3,(박리마을) 신왕1리,간이운동장,,경북 김천시 조마면 신왕리 1257-1,,128.1423419,36.01924672,054-420-7924,경상북도,김천시,20190101
4,(자산경로당),간이운동장,39588,경상북도 김천시 성내동 161-17,자산경로당,128.1220924,36.1207712,054-421-2318,경상북도,김천시,20100101
5,(합천마을) 향천2리,간이운동장,,경북 김천시 대항면 향천리 838,향천2리 회관 옆,128.0221615,36.12495428,054-421-2165,경상북도,김천시,20190101
6,구야리 977 (166-11 맞은편),간이운동장,39512,경상북도 김천시 감문면 구야리 166-9,구야리 977(166-11 맞은편),128.1588134,36.18807013,054-420-7928,경상북도,김천시,20130101
7,국당마을 소공원,간이운동장,,경상북도 경주시 황남동 483-3,,129.2105285,35.82704596,054-779-8398,경상북도,경주시,20160929
8,금서면 매촌마을 운동기구-3,간이운동장,,경남 산청군 금서면 매촌리 710-4,,127.8627388,35.41751469,055-970-8205,경상남도,산청군,20200101
9,수도사업소 입구,간이운동장,760901,경북 안동시 용상동 440-9,,128.7675696,36.55215363,054-840-4781,경상북도,안동시,20170101
10,어룡동 소촌마을 동네체육시설,간이운동장,,광주광역시 광산구 소촌동 461-3,,126.7944614,35.14543988,062-960-9923,광주광역시,광산구,20160119
11,(갈지리)삼성마을,간이운동장,38360,경상북도 청도군 금천면 갈지리 771,,128.8585447,35.74542597,054-370-2591,경상북도,청도군,19000101
12,(게이트볼장-06) 어곡주민공원,전천후게이트볼장,50590,경상남도 양산시 어곡동 348,,129.0269939,35.37771496,055-392-3405,경상남도,양산시,20080101
13,(게이트볼장-08) 서창게이트볼장,전천후게이트볼장,,경남 양산시 삼호동 823-2,,129.1820248,35.41149933,055-392-6184,경상남도,양산시,20220228
14,(게이트볼장-17) 새터어린이공원,전천후게이트볼장,50603,경상남도 양산시 물금읍 가촌리 554-5,,128.9918013,35.32028649,055-392-7015,경상남도,양산시,20140101
15,(공원 시설- 동부마을 공원)미상-하북) 하북 순지 동네체육시설(7),간이운동장,50503,경상남도 양산시 하북면 순지리 826-1,,129.0881099,35.4935491,055-392-7254,경상남도,양산시,19000101
16,(공원-85) 시설명 미상,간이운동장,,경남 양산시 어곡동 909,,129.0239628,35.37838767,055-392-3183,경상남도,양산시,19000101
17,(구)공무원교육원,간이운동장,,경상북도 경주시 감포읍,,129.498385,35.799514,051-610-4125,경상북도,경주시,20161231
18,(구)다례마을 체육시설,간이운동장,50407,경상남도 밀양시 무안면 가례리 986,,128.5978222,35.48879162,055-359-5780,경상남도,밀양시,20031024
19,(구)모로마을 체육시설,간이운동장,50408,경상남도 밀양시 무안면 모로리 480-2 모로마을회관,,128.6455639,35.46239456,055-359-5780,경상남도,밀양시,20110421
20,(구)백성초 내 체육시설(야구장),야구장,17580,경기도 안성시 금산동 119,,127.266622,37.01117133,031-678-6868,경기도,안성시,20200101
21,(구)생연배수지 동네체육시설,간이운동장,11314,경기도 동두천시 생연동 산41-13,(구)생연배수지 (생연동 산 44-6),127.062039,37.90585739,031-860-2144,경기도,동두천시,20160816
22,(구)영호초등학교,간이운동장,36707,경상북도 안동시 옥야동 328-2,,128.7237481,36.56259767,054-840-4811,경상북도,안동시,20170101
23,(구)태화사옆 체육시설,간이운동장,,경상남도 통영시 명정동,,128.415137,34.847189,052-290-3672,경상남도,통영시,20161231
24,(국궁장-02) 회야정,국궁장,50541,경상남도 양산시 평산동 283 웅상체육공원,,129.1428238,35.37694319,055-392-6182,경상남도,양산시,19000101
25,(금포마을),간이운동장,,경북 김천시 증산면 동안리 52-2,,128.0265448,35.91065349,054-421-2302,경상북도,김천시,20190101
26,(김전1리)영골숲,간이운동장,38360,경상북도 청도군 금천면 김전리 15 농협중앙회지원시설,,128.8670124,35.73333516,054-370-2591,경상북도,청도군,20100301
27,(김전2리)공원,간이운동장,714871,경북 청도군 금천면 김전리 495-2,,128.851824,35.73416109,054-370-2591,경상북도,청도군,19000101
28,(김전2리)정자옆 김전리 580,간이운동장,,경북 청도군 금천면 김전리 580,,128.8467405,35.73548378,054-370-6739,경상북도,청도군,20230323
29,(덕계동-01)동일2차 주민쉼터,간이운동장,50555,경상남도 양산시 덕계동 1103 동일스위트2차아파트,,129.1477901,35.3732825,055-392-6861,경상남도,양산시,20210506
30,(덕계동-02)외산마을회관앞,간이운동장,50539,경상남도 양산시 덕계동 84-3,,129.1625829,35.36907454,055-392-6861,경상남도,양산시,20200417
31,(덕계동-1)동일2차,간이운동장,50555,경상남도 양산시 덕계동 1103 동일스위트2차아파트,,129.1477901,35.3732825,055-392-6861,경상남도,양산시,20210506
32,(동곡1리)금빛센터,간이운동장,38362,경상북도 청도군 금천면 동곡리 721 금빛센터,,128.8898833,35.69188693,054-370-2591,경상북도,청도군,19000101
33,(동곡1리)동곡리 1119-20,간이운동장,38362,경상북도 청도군 금천면 동곡리 1119-20,,128.8964019,35.68334186,054-370-2590,경상북도,청도군,20210325
34,(동곡1리)새들보체육공원,간이운동장,38362,경상북도 청도군 금천면 동곡리 1064-25,,128.8982244,35.68704576,054-370-2590,경상북도,청도군,19000101
35,(동곡1리)아랫곡,간이운동장,714872,경북 청도군 금천면 동곡리 1119-40,,128.8895134,35.6902527,054-370-2591,경상북도,청도군,20120612
36,(동곡1리)한마음공원,간이운동장,714872,경북 청도군 금천면 동곡리 644-1,동곡1리 여자경로당 옆,128.887967,35.69400401,054-370-2591,경상북도,청도군,20041101
37,(동곡2리)경로회관 동곡리 242,간이운동장,38362,경상북도 청도군 금천면 동곡리 242 동곡리경로회관,,128.8866479,35.70212317,054-370-6739,경상북도,청도군,20230323
38,(미정-물금) 가촌마을 동네체육시설,간이운동장,50603,경상남도 양산시 물금읍 가촌리 554-5,,128.9918013,35.32028649,055-392-7016,경상남도,양산시,19000101
39,(박곡리)마을창고 옆,간이운동장,38364,경상북도 청도군 금천면 박곡리 1009-3,,128.9166089,35.66817572,054-370-2591,경상북도,청도군,19000101
40,(박곡리)박곡리962,간이운동장,,경북 청도군 금천면 박곡리 962,,128.9203496,35.66805662,054-370-2591,경상북도,청도군,19000101
41,(사전1리)공원,간이운동장,714871,경북 청도군 금천면 사전리 266-2,,128.8872275,35.71361679,054-370-2591,경상북도,청도군,20190528
42,(사전1리)공원,간이운동장,714871,경북 청도군 금천면 사전리 285-4,,128.8858827,35.71337836,054-370-2591,경상북도,청도군,20190528
43,(사전2리)학동마을,간이운동장,714871,경북 청도군 금천면 사전리 875-1,,128.8816199,35.72831719,054-370-2591,경상북도,청도군,20140501
44,(소천1리)마을정자 소천리 1340-1,간이운동장,,경북 청도군 금천면 소천리 1340-1,,128.9027594,35.74351995,054-370-6739,경상북도,청도군,20230323
45,(소천3리)마을회관,간이운동장,38361,경상북도 청도군 금천면 소천리 1630 소천3리마을회관,,128.8955091,35.7533015,054-370-2591,경상북도,청도군,20190528
46,(수도마을회관),간이운동장,39695,경상북도 김천시 증산면 수도리 383 수로마을회관,,128.0054702,35.85383431,054-421-2302,경상북도,김천시,20190101
47,(수영장-02) 양산주민편익시설,수영장,50635,경상남도 양산시 동면 석산리 652 주민편익시설,,129.0276,35.32783032,055-392-3403,경상남도,양산시,19000101
48,(수영장-03) 웅상문화체육센터,수영장,50519,경상남도 양산시 주진동 72-6,,129.155436,35.39582806,055-392-3403,경상남도,양산시,19000101
49,(수영장-04) 양산반다비체육센터,수영장,50613,경상남도 양산시 물금읍 가촌리 1312-4 반다비 체육센터,,129.0028712,35.32300833,054-392-3403,경상남도,양산시,19000101
50,(수영장-05) 천성산국민체육센터(양산 생활밀착형 국민체육센터),수영장,50561,경상남도 양산시 상북면 석계리 35-1,,129.0661239,35.41868458,055-392-3403,경상남도,양산시,20220615
51,(수영장-06)쌍벽루국민체육센터,수영장,50619,경상남도 양산시 북부동 533 양산종합운동장,쌍벽루국민체육센터,129.0354802,35.34851958,054-379-8444,경상남도,양산시,20240301
52,(신지1리)경로당 선암로 468,간이운동장,38364,경상북도 청도군 금천면 신지리 255-1,,128.8958935,35.67793935,054-370-2591,경상북도,청도군,20200524
53,(신지2리)동네체육시설,간이운동장,38364,경상북도 청도군 금천면 신지리 1637-21,,128.8874193,35.66794488,054-370-2591,경상북도,청도군,19000101
54,(신지3리)건강증진센터,간이운동장,714872,경북 청도군 금천면 신지리 1570-2,,128.9046126,35.67285372,054-370-2591,경상북도,청도군,20160301
55,(신지3리)길부지,간이운동장,714872,경북 청도군 금천면 신지리 1427,,128.9027096,35.67382098,054-370-2591,경상북도,청도군,19000101
56,(신지3리)마을정자,간이운동장,,경북 청도군 금천면 신지리 1593,마을정자 옆,128.9057763,35.67134187,054-370-2591,경상북도,청도군,19000101
57,(신지4리)하수종말처리장,간이운동장,38362,경상북도 청도군 금천면 신지리 1637-41,,128.8886724,35.67913522,054-370-2591,경상북도,청도군,19000101
58,(실내체육관-01)양산실내체육관,구기체육관,50619,경상남도 양산시 북부동 533 양산종합운동장,,129.0354974,35.34856074,055-379-8534,경상남도,양산시,20000101
59,(실내체육관-02) 양산시국민체육센터,생활체육관,50601,경상남도 양산시 물금읍 가촌리 990 국민체육센터,경남 양산시 물금읍 가촌리 990번지 일원,128.9950691,35.32652607,055-379-8650,경상남도,양산시,20101216
60,(실내체육관-04) 더힘찬체육관,생활체육관,50601,경상남도 양산시 물금읍 가촌리 990 국민체육센터,더힘찬체육관,128.9952766,35.32651336,055-379-8634,경상남도,양산시,20200122
61,(실내체육관-08) 양산시반다비체육센터(고 양산반다비체육센터),생활체육관,50613,경상남도 양산시 물금읍 가촌리 1312-4 반다비 체육센터,,129.0027247,35.32325263,055-379-8410,경상남도,양산시,20220504
62,(야구장-01) 강민호야구장,야구장,,경남 양산시 물금읍 물금리 209-3,,128.9881945,35.29780968,055-392-3404,경상남도,양산시,19000101
63,(야구장-07) 삽량체육공원 야구장,야구장,50644,경상남도 양산시 동면 내송리 산70-8,삽량체육공원 야구장,129.0589632,35.32570243,055-392-7104,경상남도,양산시,20201201
64,(오봉1리)마을정자 오봉리 301-7,간이운동장,,경북 청도군 금천면 오봉리 301-7,오봉리 301-7 정자옆,128.8988052,35.6617509,054-370-2591,경상북도,청도군,20200524
65,(오봉1리)마을정자 오봉리 401,간이운동장,,경북 청도군 금천면 오봉리 401,,128.9035305,35.66083498,054-370-2590,경상북도,청도군,20210325
66,(오봉2리)경로회관 오봉길 152,간이운동장,38364,경상북도 청도군 금천면 오봉리 1010-1 오봉경로회관,,128.9155029,35.65590562,054-370-2591,경상북도,청도군,20160720
67,(음봉면) 덕지1리 마을회관,간이운동장,31453,충청남도 아산시 음봉면 덕지리 296-4 덕지리마을회관,,127.0695884,36.83280274,041-537-3105,충청남도,아산시,20220630
68,(음봉면) 덕지2리 마을 내,간이운동장,31416,충청남도 아산시 음봉면 덕지리 21-3 초원그린타운,,127.0857135,36.84103563,041-537-3105,충청남도,아산시,20220930
69,(음봉면) 동암1리 복지회관,간이운동장,31415,충청남도 아산시 음봉면 동암리 522-16 동암1리복지회관,,127.0547653,36.84673394,041-537-3105,충청남도,아산시,20150101
70,(음봉면) 산정1리 마을회관,간이운동장,31443,충청남도 아산시 음봉면 산정리 70-5,,127.0047462,36.85450318,041-537-3105,충청남도,아산시,20160101
71,(음봉면) 소동1리 마을회관,간이운동장,31413,충청남도 아산시 음봉면 소동리 236-4 소동1리마을회관,,127.0485937,36.86704057,041-537-3105,충청남도,아산시,20150101
72,(음봉면) 소동2리 마을회관,간이운동장,31413,충청남도 아산시 음봉면 소동리 365-4 소동2리마을회관,,127.0441849,36.86679431,041-537-3105,충청남도,아산시,20210101
73,(음봉면) 신정1리 마을회관,간이운동장,31423,충청남도 아산시 음봉면 신정리 94-2,,127.0258576,36.87057569,041-537-3105,충청남도,아산시,20150101
74,(음봉면) 신정1리 마을회관,간이운동장,31423,충청남도 아산시 음봉면 신정리 94-2,,127.0258149,36.87055344,041-537-3105,충청남도,아산시,19990101
75,(음봉면) 신휴1리 마을회관,간이운동장,31408,충청남도 아산시 음봉면 신휴리 92-3,,127.0690403,36.89594262,041-537-3105,충청남도,아산시,20190101
76,(음봉면) 신휴3리 마을회관,간이운동장,31408,충청남도 아산시 음봉면 신휴리 214-5 신휴3리마을회관,,127.0652085,36.89760821,041-537-3105,충청남도,아산시,20190101
77,(음봉면) 쌍암1리 노인회관,간이운동장,31414,충청남도 아산시 음봉면 쌍암리 74-6 경노당,,127.0799091,36.873659,041-537-3105,충청남도,아산시,20210101
78,(음봉면) 쌍암3리 복지회관,간이운동장,31414,충청남도 아산시 음봉면 쌍암리 161-1 쌍암3리복지회관,,127.0813378,36.8792135,041-537-3105,충청남도,아산시,20210101
79,(음봉면) 쌍용1리 마을회관,간이운동장,31414,충청남도 아산시 음봉면 쌍룡리 260 쌍용1리마을회관,,127.0684515,36.87108837,041-537-3105,충청남도,아산시,20190101
80,(음봉면) 원남1리 마을회관,간이운동장,31423,충청남도 아산시 음봉면 원남리 247-2,,127.026002,36.86453296,041-537-3105,충청남도,아산시,19990101
81,(음봉면) 원남1리 마을회관,간이운동장,31423,충청남도 아산시 음봉면 원남리 257-12,,127.0241842,36.86506003,041-537-3105,충청남도,아산시,20170101
82,(이순신종합운동장)보조경기장,축구장,31580,충청남도 아산시 풍기동 114-3 이순신빙상장,또는 366-2,127.0223745,36.76887516,041-536-8531,충청남도,아산시,20160707
83,(이순신종합운동장)복합스포츠센터,생활체육관,31580,충청남도 아산시 풍기동 114-3 이순신빙상장,또는 366-2,127.0223745,36.76887516,041-536-8531,충청남도,아산시,20160707
84,(인공암벽장-01) 양산종합운동장,인공암벽장,50619,경상남도 양산시 북부동 533 양산종합운동장,,129.0354802,35.34851958,055-392-3403,경상남도,양산시,19000101
85,(임당1리)임당리 1075-1,간이운동장,,경북 청도군 금천면 임당리 1075-1,,128.9121625,35.70304225,054-370-2590,경상북도,청도군,20210325
86,(임당2리)경로회관,간이운동장,38363,경상북도 청도군 금천면 임당리 1670 임당2리경로회관,,128.9080416,35.69038361,054-370-2591,경상북도,청도군,20220408
87,(임당2리)명포습지,간이운동장,714872,경북 청도군 금천면 임당리 2145-11,,128.9055936,35.69051098,054-370-2591,경상북도,청도군,20140314
88,(장평노인회관앞),간이운동장,39695,경상북도 김천시 증산면 평촌리 236-3 장평노인회관,,128.0210411,35.89527624,054-421-2302,경상북도,김천시,20080101
89,(축구장-03) 서창운동장,축구장,50525,경상남도 양산시 삼호동 산34,,129.1822946,35.41161583,055-392-3404,경상남도,양산시,19000101
90,(축구장-04) 웅상체육공원,축구장,50541,경상남도 양산시 평산동 283 웅상체육공원,,129.1434299,35.37762612,055-392-3182,경상남도,양산시,19000101
91,(축구장-08)하북체육공원 1구장,축구장,50504,경상남도 양산시 하북면 초산리 456,,129.0786338,35.48064273,055-392-3404,경상남도,양산시,19980101
92,(축구장-14) 동면상동체육공원 축구장,축구장,50647,경상남도 양산시 동면 여락리 299 상동체육공원,,129.0902314,35.3063579,055-392-7104,경상남도,양산시,20151201
93,(출.문화-01) 탑골저수지 옆 산책로변,간이운동장,,경남 양산시 용당동 172-4,,129.1922155,35.41951664,055-392-6182,경상남도,양산시,19000101
94,(출.문화-46) 웅상배드민턴장,간이운동장,50517,경상남도 양산시 소주동 1204-5,,129.1507481,35.40057825,055-392-6181,경상남도,양산시,19000101
95,(테니스장-04) 서창운동장,테니스장,50525,경상남도 양산시 삼호동 157,,129.1822946,35.41161583,055-379-8574,경상남도,양산시,19000101
96,(테니스장-07) 하북지산,테니스장,50502,경상남도 양산시 하북면 지산리 46-1 지내마을회관,,129.0801489,35.49982749,055-392-7253,경상남도,양산시,19000101
97,(테니스장-10) 삽량체육공원 테니스장,테니스장,50644,경상남도 양산시 동면 내송리 산70-8,삽량체육공원 테니스장,129.0598804,35.32531616,055-392-7104,경상남도,양산시,20201201
98,(평창)청성골프타운(임대),골프연습장,25372,강원특별자치도 평창군 평창읍 후평리 365,,128.3855552,37.37736263,033-330-2082,강원특별자치도,평창군,20011107
99,01. 양지마을회관 앞 공터,간이운동장,38221,경상북도 경주시 양남면 상계리 160-2,,129.4233824,35.67024172,054-779-8172,경상북도,경주시,19991201
100,02. 나아마을회관 옆 공터,간이운동장,38219,경상북도 경주시 양남면 나아리 483 나아리마을회관경로당청년회,,129.4696846,35.70069857,054-779-8172,경상북도,경주시,20090101
101,03. 하서1리 당수나무 옆 공터,간이운동장,,경북 경주시 양남면 하서리 620-1,,129.463204,35.67604855,054-779-8172,경상북도,경주시,20150801
102,04. 나산마을 경로당,간이운동장,38217,경상북도 경주시 양남면 나산리 205 나산마을회관,,129.4592082,35.70949974,054-779-8172,경상북도,경주시,20150801
103,05. 월아 경로당,간이운동장,38220,경상북도 경주시 양남면 하서리 794,,129.4586531,35.67684144,054-779-8172,경상북도,경주시,20150801
104,06. 하서3리 경로당,간이운동장,38220,경상북도 경주시 양남면 하서리 666-2,,129.4619134,35.67323911,054-779-8172,경상북도,경주시,20150801
105,07. 달바다펜션 앞 공터,간이운동장,38219,경상북도 경주시 양남면 하서리 70-1,,129.467446,35.67992547,054-779-8172,경상북도,경주시,20160801
106,08. 웃나마을 경로당,간이운동장,38217,경상북도 경주시 양남면 상라리 155 상라리노인정,,129.4439551,35.73154278,054-779-8172,경상북도,경주시,20160801
107,09. 자붓마을 경로당,간이운동장,38217,경상북도 경주시 양남면 상라리 212-1 상라리마을회관,,129.4380533,35.73939308,054-779-8172,경상북도,경주시,20160801
108,1-1. 옥정중앙공원(인공호수 소녀의상 앞),간이운동장,11473,경기도 양주시 옥정동 1035-1,(인공호구 소녀의상 앞),127.0950189,37.82214334,031-8082-7316,경기도,양주시,19990101
109,1-2. 옥정중앙공원(무궁화동산 아래),간이운동장,,경기 양주시 옥정동 1039,(잔디광장 무궁화동산 아래쪽),127.0975083,37.82438486,031-8082-7316,경기도,양주시,19990101
110,1. 광명동 경로당 공터,간이운동장,38183,경상북도 경주시 광명동 135-7,,129.1510775,35.81947103,054-779-8422,경상북도,경주시,20141125
111,1. 옥정중앙공원(하류),간이운동장,11473,경기도 양주시 옥정동 1035-1,(인공호수 하류쪽),127.0950189,37.82214334,031-8082-7316,경기도,양주시,19990101
112,1.검바골공원,간이운동장,10445,경기도 고양시 일산동구 백석동 1156,,126.7911069,37.64863305,031-8075-6262,경기도,고양시,19990101
113,1.윗말어린이공원,간이운동장,10356,경기도 고양시 일산서구 일산동 1096 신일중학교,,126.7736739,37.6772232,031-8075-7263,경기도,고양시,20101101
114,10-1. 선돌공원(중흥e클래스센텀시티 앞),간이운동장,,경기 양주시 옥정동 908,중흥e클래스 센텀시티 아파트 앞,127.0868366,37.82286483,031-8082-7316,경기도,양주시,19990101
115,10. 전방마을 경로당,간이운동장,38216,경상북도 경주시 양남면 환서리 688,,129.4456669,35.69301678,054-779-8172,경상북도,경주시,20160801
116,10.범룡골 약수터 동네체육시설,간이운동장,10249,탄현동 1447-3,,126.7698357,37.69996541,031-8075-7443,경기도,고양시,19941201
117,10.부촌공원,간이운동장,410380,경기 고양시 일산동구 장항동 879,,126.7773234,37.64709058,031-8075-6262,경기도,고양시,20180131
118,10.재동길 경로당,간이운동장,38057,경상북도 경주시 충효동 1600 재동마을회관,,129.1627411,35.84500705,054-779-8422,경상북도,경주시,20180101
119,11. 가온길공원(푸르지오906~907동 앞),간이운동장,,경기 양주시 옥정동 955-5,푸르지오아파트 906~907동 앞,127.0902926,37.82276926,031-8082-7316,경기도,양주시,19990101
120,11. 구만마을 경로당,간이운동장,38216,경상북도 경주시 양남면 환서리 449 환서2리노인정,,129.4474631,35.69884721,054-779-8172,경상북도,경주시,20160801
121,11.설촌공원,간이운동장,10412,경기도 고양시 일산동구 마두동 874 설촌경로당,,126.7886259,37.66203522,031-8075-6262,경기도,고양시,20180131
122,11.외외2길 경로당,간이운동장,38065,경상북도 경주시 효현동 570 외외마을회관,,129.1688164,35.82591312,054-779-8422,경상북도,경주시,20180101
123,12. 규율공원-2,간이운동장,,경기 양주시 옥정동 1043-4,,127.1000813,37.82676132,031-8082-7316,경기도,양주시,19990101
124,12. 효제마을 경로당,간이운동장,38216,경상북도 경주시 양남면 효동리 1229 효동1리회관,,129.3920403,35.74218289,054-779-8172,경상북도,경주시,20160801
125,12.구산동 동네체육시설,간이운동장,10201,구산동 413-26,,126.703115,37.69328064,031-8075-7443,경기도,고양시,20110601
126,12.능안공원,간이운동장,410350,경기 고양시 일산동구 마두동 958,,126.7833053,37.65991728,031-8075-6262,경기도,고양시,20180131
127,12.서악동 경로당(서악3길 44),간이운동장,38064,경상북도 경주시 서악동 658 선도동경로당,,129.1867994,35.8268331,054-779-8425,경상북도,경주시,20180101
128,13. 꼬꼬지길공원(센트럴파크 푸르지오917~918동 앞),간이운동장,,경기 양주시 옥정동 955-5,샌트럴파크 푸르지오917~918동 앞,127.0902926,37.82276926,031-8082-7316,경기도,양주시,19990101
129,13. 송정마을 경로당,간이운동장,38216,경상북도 경주시 양남면 환서리 127 환서1리노인정,,129.4491786,35.68952617,054-779-8172,경상북도,경주시,20160801
130,13.서악동 경로당(2)-능남길 2,간이운동장,38064,경상북도 경주시 서악동 824 농남노보마을회관,,129.1871809,35.82375601,054-779-8422,경상북도,경주시,20190101
131,13.송포8통 서촌마을회관 동네체육시설,간이운동장,10213,법곳동 1045-2,,126.7164967,37.67354978,031-8075-7443,경기도,고양시,20120319
132,13.안골공원,간이운동장,10410,경기도 고양시 일산동구 마두동 992,,126.7784665,37.65747204,031-8075-6262,경기도,고양시,20180131
133,14-1. 옥정저류지공원(GS샌트럴파크 주유소 앞),간이운동장,,경기 양주시 옥정동 941-1,대성베르휠 앞,127.0829093,37.81273685,031-8082-7316,경기도,양주시,19990101
134,14. 늘밭마을 경로당,간이운동장,38216,경상북도 경주시 양남면 효동리 250 효동2리경로당,,129.394992,35.73023083,054-779-8172,경상북도,경주시,20171101
135,14. 옥정저류지공원(e-편한세상1517동 앞),간이운동장,,경기 양주시 옥정동 941-1,e-편한세상아파트 앞,127.0829093,37.81273685,031-8082-7190,경기도,양주시,19990101
136,14.냉천공원,간이운동장,10407,경기도 고양시 일산동구 마두동 837 마두동 경노당,,126.7858478,37.6648701,031-8075-6262,경기도,고양시,20180131
137,14.마을회관 공터(중마을길 89),간이운동장,38057,경상북도 경주시 충효동 1239 이문안중마을경로당,,129.1629555,35.85174857,054-779-8422,경상북도,경주시,20190101
138,15-1.밤가시공원,간이운동장,410830,경기 고양시 일산동구 정발산동 1299,,126.7827438,37.66904136,031-8075-6262,경기도,고양시,20180131
139,15-2.밤가시공원,간이운동장,10406,경기도 고양시 일산동구 정발산동 1280,,126.7829993,37.67004732,031-8075-6262,경기도,고양시,20180131
140,15-3.밤가시공원,간이운동장,410830,경기 고양시 일산동구 정발산동 1270,,126.7853859,37.67097429,031-8075-6262,경기도,고양시,20180131
141,15. 산울림어린이공원(케이플러스호텔 앞),간이운동장,,경기 양주시 고암동 594-4,(케이플러스호텔 앞),127.0766575,37.83215589,031-8082-7318,경기도,양주시,19000101
142,15. 올골마을 경로당,간이운동장,38220,경상북도 경주시 양남면 하서리 1467-1,,129.4515488,35.68554577,054-779-8172,경상북도,경주시,20171101
143,15.송화어린이공원(참맑은한의원 앞),간이운동장,38062,경상북도 경주시 충효동 3018-3,,129.1893453,35.84075536,054-779-8422,경상북도,경주시,20191210
144,15.이산포 마을회관 동네체육시설,간이운동장,10203,법곳동 1735-3,,126.7237586,37.66300034,031-8075-7443,경기도,고양시,20140328
145,15통 체육시설(언하2동),간이운동장,,경북 영천시 언하동 386-2,,128.9629678,35.98490335,054-339-7062,경상북도,영천시,20220407
146,16. 참수물공원(클래스센텀시티아파트 앞),간이운동장,,경기 양주시 옥정동 914-4,(클래스센텀시티 아파트 앞),127.0858263,37.8215209,031-8082-7316,경기도,양주시,19990101
147,16. 후동마을 경로당,간이운동장,38219,경상북도 경주시 양남면 하서리 309 하서2리노인정회관,,129.464204,35.6817633,054-779-8172,경상북도,경주시,20171101
148,16.대화3통마을회관 동네체육시설,간이운동장,10426,대화동 1926-63,,126.7314507,37.65700317,031-8075-7443,경기도,고양시,20140328
149,16.수정공원,간이운동장,410830,경기 고양시 일산동구 정발산동 1329,,126.77862,37.66835976,031-8075-6262,경기도,고양시,20180131
150,16.장매안길 27-2(장매 경로당 공터),간이운동장,38064,경상북도 경주시 서악동 1441-5,,129.1927411,35.81450898,054-779-8422,경상북도,경주시,20191229
151,17. 보물섬어린이공원(옥빛중학교 인근),간이운동장,,경기 양주시 옥정동 1076-1,옥빛중학교 인근-단독주택부지,127.0959974,37.81563151,031-8082-7316,경기도,양주시,19000101
152,17. 읍천마을 경로당,간이운동장,38219,경상북도 경주시 양남면 읍천리 318 읍천1리마을회관,,129.4735281,35.69090465,054-779-8172,경상북도,경주시,20170501
153,17.공원(충효중앙길36-5 근린공원),간이운동장,38061,경상북도 경주시 충효동 2994 프린스목욕탕,,129.1868122,35.84315927,054-779-8422,경상북도,경주시,20200310
154,17.택시정류장 주변 동네체육시설,간이운동장,10380,대화동 2241,,126.7515073,37.67402156,031-8075-7443,경기도,고양시,20150602
155,17통오르막쉼터,간이운동장,39589,경상북도 김천시 모암동 110-2,17통오르막쉼터,128.1222651,36.12533126,031-919-7892,경상북도,김천시,20150101
156,18. 경로당 공터(장매안길 27-2),간이운동장,38064,경상북도 경주시 서악동 1441-5,,129.1927411,35.81450898,054-779-8422,경상북도,경주시,20200811
157,18. 수렴2리 마을회관 앞,간이운동장,38220,경상북도 경주시 양남면 수렴리 425-37 수렴2리마을회관,,129.4516528,35.66244528,054-779-8172,경상북도,경주시,20180601
158,18. 초록숲어린이공원(옥정제6어린이공원),간이운동장,,경기 양주시 옥정동 1073-3,옥정 제6 어린이공원,127.0960717,37.81701144,031-8082-7316,경기도,양주시,19990101
159,18.사재공원,간이운동장,10358,경기도 고양시 일산동구 정발산동 1241,,126.7818175,37.67260753,031-8075-6262,경기도,고양시,20180131
160,18.송산11통마을회관 동네체육시설,간이운동장,10207,경기도 고양시 일산서구 구산동 219,,126.7083094,37.69405402,031-8075-7443,경기도,고양시,20180413
161,19. 석촌경로당 앞,간이운동장,38216,경상북도 경주시 양남면 석촌리 111,,129.4161743,35.71178449,054-779-8172,경상북도,경주시,20190601
162,19. 오르락내리락어린이공원,간이운동장,,경기 양주시 옥정동 1064-3,옥정 제7어린이공원,127.0980954,37.81701671,031-8082-7316,경기도,양주시,19990101
163,19.경로당공터(내외로 3147),간이운동장,38183,경상북도 경주시 광명동 219-4,,129.1480938,35.81680096,054-779-8422,경상북도,경주시,20200910
164,19.매봉재공원,간이운동장,10357,경기도 고양시 일산동구 정발산동 1123 율동경로당,,126.7778151,37.67525614,031-8075-6262,경기도,고양시,20180131
165,19.송산14통마을회관 동네체육시설,간이운동장,10201,경기도 고양시 일산서구 구산동 920-1 송산마을회관,,126.7024966,37.69142307,031-8075-7443,경기도,고양시,20180413
166,1농공단지,간이운동장,755801,경북 봉화군 봉화읍 거촌리 730,,128.7408201,36.87289466,054-679-6282,경상북도,봉화군,20160402
167,1주공아파트내 배드민턴장,간이운동장,210100,강원특별자치도 강릉시 교동 1752,,128.8844991,37.76649615,033-640-5986,강원특별자치도,강릉시,20180823
168,1호 광장 공원 체육시설,기타체육시설(체력단련장),,경북 구미시 선산읍 완전리 258-1,,128.3018095,36.23833581,054-480-4915,경상북도,구미시,19000101
169,2-1생활권 다정동복합커뮤니티센터,생활체육관,30123,세종특별자치시 다정동 929 다정동 복합커뮤니티센터,,127.2503429,36.49452387,044-301-7121,세종특별자치시,세종시,20200425
170,2-2생활권(새롬동),생활체육관,30127,세종특별자치시 새롬동 575 새롬동복합커뮤니티센터,2층 체육관,127.2518756,36.48522953,044-301-6819,세종특별자치시,세종시,20180516
171,2-4생활권(나성동) 복컴,생활체육관,30128,세종특별자치시 나성동 850,3층 다목적체육관,127.2642608,36.48907159,044-301-7615,세종특별자치시,세종시,20221130
172,2.간이공원,간이운동장,10446,경기도 고양시 일산동구 백석동 1269,,126.7880046,37.64615882,031-8075-6262,경기도,고양시,20180131
173,2.일산2동 동네체육시설,간이운동장,10354,일산동 1673-4,,126.7765955,37.68280042,031-8075-7442,경기도,고양시,20050701
174,2.효현동 경로당 공터,간이운동장,38065,경상북도 경주시 효현동 870,,129.1567072,35.82789267,054-779-8422,경상북도,경주시,20130101
175,20. 월천경로당 앞,간이운동장,38216,경상북도 경주시 양남면 효동리 839-3,,129.3887732,35.72140447,054-779-8172,경상북도,경주시,20230209
176,20. 파란하늘어린이공원(조형폰드 앞),간이운동장,,경기 양주시 옥정동 1081-3,조형폰드 앞,127.0981335,37.81562038,031-8082-7190,경기도,양주시,19990101
177,20.덕이3통 동네체육시설,간이운동장,,경기 고양시 일산서구 덕이동 598-5,,126.7459734,37.69728017,031-8075-7443,경기도,고양시,20180530
178,20.두루미공원,간이운동장,10359,경기도 고양시 일산동구 정발산동 1159 저동경로당,,126.7761671,37.67142927,031-8075-6262,경기도,고양시,20180131
179,20.충효6 어린이공원 내,간이운동장,38057,경상북도 경주시 충효동 1414,충효동 1860-4,129.1644845,35.84899173,054-779-8422,경상북도,경주시,20201123
180,21. 닥밭공원,간이운동장,10362,경기도 고양시 일산동구 정발산동 698 닥밭경로당,,126.7725066,37.667494,031-8075-6262,경기도,고양시,20180131
181,21. 신서리 마을회관 앞 공터,간이운동장,38221,경상북도 경주시 양남면 신서리 471-1,,129.4354617,35.66694502,054-779-8172,경상북도,경주시,20221201
182,21. 천보어린이공원(천보초등교 앞),간이운동장,,경기 양주시 옥정동 1014-1,천보초등교 앞,127.0942896,37.83323991,031-8082-7316,경기도,양주시,19990101
183,21.송산13통 마을회관 동네체육시설,간이운동장,10202,경기도 고양시 일산서구 구산동 1592-2,,126.6835848,37.68191848,031-8075-7443,경기도,고양시,20190624
184,21.충효어린이공원(선관위 옆),간이운동장,,경북 경주시 충효동 2968-2,충효동 2968-2,129.1840552,35.84435629,054-779-8422,경상북도,경주시,20201123
185,22. 율정어린이공원(자연나음 발전자전거 뒤편,간이운동장,,경기 양주시 옥정동 998-1,자연나음 발전자전거 뒤편,127.0937109,37.83658616,031-8082-7316,경기도,양주시,19990101
186,22. 지경방파제 앞 공원,간이운동장,38220,경상북도 경주시 양남면 수렴리 564,,129.4493449,35.65177329,054-779-8172,경상북도,경주시,20230531
187,22.경로당공터(장매안길 27-2),간이운동장,38064,경상북도 경주시 서악동 1441-5,,129.1927411,35.81450898,054-779-8422,경상북도,경주시,20201123
188,22.송산12통 마을회관 동네체육시설,간이운동장,10202,경기도 고양시 일산서구 구산동 1170-2,,126.7036398,37.68164236,031-8075-7443,경기도,고양시,20210618
189,22호근린공원,간이운동장,,서울특별시 관악구 신원동,,126.927083,37.482544,031-481-2470,서울특별시,관악구,20161231
190,23. 구만마을 소공원,간이운동장,38216,경상북도 경주시 양남면 환서리 967,,129.4419455,35.70271504,054-779-8172,경상북도,경주시,20240315
191,23. 노하마을 정자(노하길 17),간이운동장,38064,경상북도 경주시 서악동 963-1,,129.1901459,35.82382688,054-779-8422,경상북도,경주시,20210524
192,23.덕이4통마을회관 동네체육시설,간이운동장,10212,경기도 고양시 일산서구 덕이동 1000-6,,0,0,031-909-9000,경기도,고양시,20220622
193,24. 선도동행정복지센터 주차장,간이운동장,38057,경상북도 경주시 충효동 544-3 선도동주민센터,,129.1748517,35.84361827,054-779-8422,경상북도,경주시,20211217
194,3.용천공원,간이운동장,410360,경기 고양시 일산동구 백석동 1348,,126.7833157,37.64228689,031-8075-6262,경기도,고양시,20180131
195,3.효현동 마을회관 공터,간이운동장,38064,경상북도 경주시 효현동 70-1 경주벼건조저장센터/솟티마을회관,,129.1855012,35.81498392,054-779-8422,경상북도,경주시,20130101
196,30.샘물어린이공원,간이운동장,10229,경기도 고양시 일산서구 덕이동 1525 샘물어린이공원 공중화장실,,126.7528028,37.70307893,031-8075-7263,경기도,고양시,20100101
197,267호 소공원,간이운동장,,경기 부천시 원미구 원미동 39-5,,126.7905178,37.50046539,032-340-0895,경기도,부천시,20180423
198,26사단 해와달마을 풋살장,간이운동장,11506,경기도 양주시 백석읍 방성리 93,방성리 산141-1,127.0071989,37.80087296,031-8082-5647,경기도,양주시,20190119
199,27. 농기계임대사업소 주변,간이운동장,38064,경상북도 경주시 서악동 1153,,129.1894001,35.82859433,054-779-8422,경상북도,경주시,20221219
200,27통,간이운동장,39588,경상북도 김천시 성내동 91-20,성내동 89-19 정자 옆,128.1204882,36.12119922,054-420-7928,경상북도,김천시,20200901
201,28.숯고개향나무어린이공원(318호),간이운동장,411320,경기 고양시 일산서구 탄현동 1639,숯고개향나무공원,126.7630101,37.69263823,031-8075-7263,경기도,고양시,20130101
202,28사단 태풍체육관,구기체육관,11425,경기도 양주시 은현면 봉암리 204-5,봉암리 199-1,127.0078372,37.91023404,031-8082-5647,경기도,양주시,20190128
203,29.탄현통나무어린이공원(321호),간이운동장,411320,경기 고양시 일산서구 탄현동 1637,탄현통나무어린이공원,126.7642036,37.69527822,031-8075-7263,경기도,고양시,20130101
204,2주공아파트 건녀편,간이운동장,210935,강원특별자치도 강릉시 입암동 40-1,,128.9155148,37.76525362,033-640-5986,강원특별자치도,강릉시,20180823
205,2통 중리마을 배암천 옆,간이운동장,,경북 경주시 동천동 735-1,,129.237207,35.85265406,054-779-8482,경상북도,경주시,20200316
206,3-1. 옥정생태숲공원(주공8단지801동 앞),간이운동장,,경기 양주시 고암동 594,,127.0778756,37.83479561,031-8082-7316,경기도,양주시,19990101
207,3-2. 옥정생태숲공원(주공8단지803동 앞),간이운동장,,경기 양주시 고암동 594-4,(주공8단지803동 앞),127.0766575,37.83215589,031-8082-7316,경기도,양주시,19990101
208,3-2생활권 보람동복합커뮤니티센터,생활체육관,30150,세종특별자치시 보람동 763 보람동주민센터,3층,127.2904649,36.47874677,044-301-6716,세종특별자치시,세종시,20161201
209,3.1공원,간이운동장,39180,경상북도 구미시 옥계동 629-2 늘푸른유치원,3.1,128.4145824,36.13919899,054-480-5588,경상북도,구미시,19000101
210,33통 체육시설(청구타운),간이운동장,,경북 영천시 야사동 350-10,청구타운 201동 옆,128.9385577,35.97580252,054-339-7062,경상북도,영천시,20190327
211,34통쉼터,간이운동장,740100,경북 김천시 성내동 162,34통쉼터,128.1225916,36.12111076,031-949-3347,경상북도,김천시,20110101
212,35호(양영) 어린이공원,간이운동장,463819,경기 성남시 분당구 서현동 317-1,양영어린이공원,127.1393403,37.37340698,031-7297-463,경기도,성남시,20180624
213,365세이프타운,축구장,26047,강원특별자치도 태백시 장성동 31-2 한국안전체험관,,129.025226,37.1025746,033-550-2300,강원특별자치도,태백시,20170101
214,365세이프타운 축구장,축구장,26047,강원특별자치도 태백시 장성동 31-2 한국안전체험관,,129.025226,37.1025746,033-550-2300,강원특별자치도,태백시,20170101
215,37통 거문들(삼락동 990-2),간이운동장,,경북 김천시 삼락동 990-2,,128.0774789,36.14224095,054-421-2375,경상북도,김천시,20220301
216,39호(장안) 어린이공원,간이운동장,,경기 성남시 분당구 분당동 89,경기도 성남시 분당동 89,127.1410874,37.37071265,031-729-7464,경기도,성남시,20181105
217,39호(장안) 어린이공원,간이운동장,463831,경기 성남시 분당구 분당동 89,장안어린이공원,127.1410874,37.37071265,031-7297-463,경기도,성남시,20180624
218,3동어린이공원(게이트볼장),전천후게이트볼장,456360,경기 안성시 당왕동 534-5,,127.2574255,37.01432054,031-678-6863,경기도,안성시,20130101
219,4-1. 꿈나래공원(물방울폰드 위),간이운동장,11473,경기도 양주시 옥정동 967-4,,127.0940898,37.81946743,031-8082-7316,경기도,양주시,19990101
220,4. 꿈나래공원(제12근린공원),간이운동장,,경기 양주시 옥정동 1054-3,,127.0906129,37.81400378,031-8082-7316,경기도,양주시,19990101
221,4. 꿈나래공원-2,간이운동장,,경기 양주시 옥정동 1082-1,,127.0966179,37.8138435,031-8082-7316,경기도,양주시,19990101
222,4. 꿈나래공원-3,간이운동장,,경기 양주시 옥정동 1082-1,,127.0966179,37.8138435,031-8082-7316,경기도,양주시,19990101
223,4. 꿈나래공원-4,간이운동장,,경기 양주시 옥정동 1097-1,,127.0949204,37.81227154,031-8082-7318,경기도,양주시,19000101
224,4. 꿈나래공원-5,간이운동장,,경기 양주시 옥정동 1097-1,,127.0949204,37.81227154,031-8082-7316,경기도,양주시,19990101
225,4. 꿈나래공원-5,간이운동장,,경기 양주시 옥정동 1097-1,,127.0949204,37.81227154,031-8082-7318,경기도,양주시,19000101
226,4.농기계임대사업소 주변,간이운동장,38064,경상북도 경주시 서악동 1153 경주직업전문학교,,129.1894001,35.82859433,054-779-8422,경상북도,경주시,20120101
227,4.청천공원,간이운동장,410360,경기 고양시 일산동구 백석동 1137,,126.7942911,37.6527291,031-8075-6262,경기도,고양시,20180131
228,42호(선지봉) 어린이공원,간이운동장,463876,경기 성남시 분당구 분당동 179,선지봉어린이공원,127.1413487,37.36556207,031-7297-463,경기도,성남시,20180624
229,43호(초림) 어린이공원,간이운동장,463020,경기 성남시 분당구 수내동 31,초림어린이공원,127.1176305,37.37535155,031-7297-463,경기도,성남시,20180624
230,43호(초림) 어린이공원,간이운동장,,경기 성남시 분당구 수내동 31,분당구 수내동 31,127.1176305,37.37535155,031-729-7464,경기도,성남시,20181105
231,48호(철쭉) 어린이공원,간이운동장,463833,경기 성남시 분당구 정자동 108,철쭉어린이공원,127.1222225,37.36641954,031-729-7463,경기도,성남시,20180624
232,49호(한솔) 어린이공원,간이운동장,463833,경기 성남시 분당구 정자동 114,한솔어린이공원,127.1169531,37.36662309,031-729-7463,경기도,성남시,20180624
233,4공단간이야구장,야구장,730410,경북 구미시 금전동 848,,128.4498181,36.13504277,054-480-2243,경상북도,구미시,20161231
234,4대대정문 동네체육시설,간이운동장,49274,부산광역시 서구 암남동 산87-1,,129.015676,35.06871759,051-240-4781,부산광역시,서구,20190411
235,4산업단지 근린공원 내 축구장,축구장,456844,경기 안성시 미양면 양변리 473,,127.2497761,36.95398238,031-678-6863,경기도,안성시,20190617
236,4산업단지공원(축구장),축구장,17604,경기도 안성시 미양면 양변리 473,,127.2499767,36.95343761,031-678-6867,경기도,안성시,20140101
237,4산업단지공원(풋살장),간이운동장,17604,경기도 안성시 미양면 양변리 473,,127.2499767,36.95343761,031-678-6868,경기도,안성시,20140101
238,4산업단지공원(풋살장),풋살장,17604,경기도 안성시 미양면 양변리 473,,127.2499767,36.95343761,031-678-6867,경기도,안성시,20140101
239,4통 체육시설,간이운동장,27407,충청북도 충주시 문화동 1769,,127.9264142,36.97095958,043-850-8396,충청북도,충주시,19990101
240,4통어린이놀이터,간이운동장,760270,경북 안동시 평화동 372-19,,128.7145094,36.57015631,054-840-4853,경상북도,안동시,20070101
241,5.6호약수터,간이운동장,,경기 과천시 문원동 산 46-5,,127.0034995,37.42118712,02-3677-2478,경기도,과천시,19940519
242,5.광명동 마을회관 공터,간이운동장,38056,경상북도 경주시 광명동 608-1 고란회관,,129.1402687,35.82922323,054-779-8422,경상북도,경주시,20150101
243,5.백송공원,간이운동장,410360,경기 고양시 일산동구 백석동 1189,,126.7892872,37.6510048,031-8075-6262,경기도,고양시,20180131
244,50+남부캠퍼스수영장,수영장,8350,서울특별시 구로구 천왕동 14-120 50플러스 남부캠퍼스,,126.841846,37.4884251,02-2066-1515,서울특별시,구로구,19990101
245,50호(느티) 어린이공원,간이운동장,,경기 성남시 분당구 정자동 91-1,,127.1117868,37.36627849,031-729-7464,경기도,성남시,20181105
246,50호(느티마을) 어린이공원,간이운동장,463010,경기 성남시 분당구 정자동 91-1,느티마을어린이공원,127.1117868,37.36627849,031-729-7463,경기도,성남시,20180624
247,52호(봉우재) 어린이공원,간이운동장,13612,경기도 성남시 분당구 정자동 145 신기경로당,,127.1127586,37.3608642,031-729-7463,경기도,성남시,20180624
248,52호(봉우재) 어린이공원,간이운동장,13612,경기도 성남시 분당구 정자동 145 신기경로당,장안어린이공원,127.1127586,37.3608642,031-729-7464,경기도,성남시,20181105
249,53호(정든) 어린이공원,간이운동장,463814,경기 성남시 분당구 정자동 196,정든어린이공원,127.1166066,37.36156687,031-729-7463,경기도,성남시,20180624
250,54호(불정) 어린이공원,간이운동장,463814,경기 성남시 분당구 정자동 204,불정어린이공원,127.1209188,37.36162742,031-729-7463,경기도,성남시,20180624
251,55호(산자락) 어린이공원,간이운동장,13604,경기도 성남시 분당구 정자동 239-1 불정경로당,,127.124509,37.35921975,031-729-7463,경기도,성남시,20180624
252,56호(늘푸른) 어린이공원,간이운동장,463867,경기 성남시 분당구 정자동 182,늘푸른어린이공원,127.1064199,37.35814897,031-729-7463,경기도,성남시,20180624
253,57호(앞구미) 어린이공원,간이운동장,,경기 성남시 분당구 금곡동 135,,127.113425,37.35365174,031-729-7464,경기도,성남시,20181105
254,57호(앞구미) 어린이공원,간이운동장,463868,경기 성남시 분당구 금곡동 135,앞구미어린이공원,127.113425,37.35365174,031-729-7463,경기도,성남시,20180624
255,58호(청솔) 어린이공원,간이운동장,,경기 성남시 분당구 금곡동 146,,127.1107357,37.35160354,031-729-7464,경기도,성남시,20181105
256,59호(뒷구미) 어린이공원,간이운동장,463808,경기 성남시 분당구 구미동 32,뒷구미어린이공원,127.1112826,37.34897563,031-729-7463,경기도,성남시,20180624
257,5통어린이놀이터,간이운동장,36647,경상북도 안동시 운안동 401-42,,128.7123001,36.5698637,054-840-4853,경상북도,안동시,20000101
258,6-1. 새빛뜰공원(세창아파트115동 앞),간이운동장,11468,경기도 양주시 옥정동 879-1,,127.0849265,37.82670853,031-8082-7316,경기도,양주시,19990101
259,6-2. 새빛뜰공원(세창아파트101동 앞),간이운동장,,경기 양주시 옥정동 879-2,세창아파트101동 앞,127.0881803,37.83144382,031-8082-7316,경기도,양주시,19990101
260,6. 새빛뜰공원(상상마당 팔각정),간이운동장,11468,경기도 양주시 옥정동 879-1,상상마당-팔각정,127.0849265,37.82670853,031-8082-7316,경기도,양주시,19990101
261,6.광명동 경로당 공터,간이운동장,38183,경상북도 경주시 광명동 219-4,,129.1480938,35.81680096,054-779-8422,경상북도,경주시,20170101
262,6.방기공원,간이운동장,10420,경기도 고양시 일산동구 백석동 1206,,126.7848251,37.64851724,031-8075-6262,경기도,고양시,20180131
263,61호(까치마을) 어린이공원,간이운동장,,경기 성남시 분당구 구미동 73,,127.1181751,37.35109898,031-729-7464,경기도,성남시,20181105
264,61호(까치마을) 어린이공원,간이운동장,463809,경기 성남시 분당구 구미동 73,까치마을어린이공원,127.1181751,37.35109898,031-729-7463,경기도,성남시,20180624
265,62호(샘터) 어린이공원,간이운동장,463810,경기 성남시 분당구 구미동 87,샘터어린이공원,127.1186139,37.34879911,031-729-7463,경기도,성남시,20180624
266,62호(샘터) 어린이공원,간이운동장,,경기 성남시 분당구 구미동 87,,127.1186139,37.34879911,031-729-7464,경기도,성남시,20181105
267,63호(하얀) 어린이공원,간이운동장,,경기 성남시 분당구 구미동 108,,127.1180705,37.34488559,031-729-7464,경기도,성남시,20181105
268,63호(하얀) 어린이공원,간이운동장,463810,경기 성남시 분당구 구미동 108,하얀어린이공원,127.1180705,37.34488559,031-729-7463,경기도,성남시,20180624
269,64호(오리) 어린이공원,간이운동장,463810,경기 성남시 분당구 구미동 114,오리어린이공원,127.1141471,37.34455786,031-729-7463,경기도,성남시,20180624
270,6통 속구미,간이운동장,,경북 김천시 신음동 71,,128.1316918,36.12795398,054-421-2372,경상북도,김천시,20200311
271,6통 속구미 인근,간이운동장,,경북 김천시 신음동 산 11-7,,128.1301237,36.12737186,054-421-2372,경상북도,김천시,20200311
272,7-1. 능호관이인상공원(모아미래도614동 앞),간이운동장,11468,경기도 양주시 옥정동 952-2,2개소,127.0937947,37.82838956,031-8082-7316,경기도,양주시,19990101
273,7-2. 능호관이인상공원-2,간이운동장,,경기 양주시 옥정동 1027-2,,127.0985533,37.83064464,031-8082-7316,경기도,양주시,19990101
274,7-3. 능호관이인상공원(한국교통공단 앞),간이운동장,,경기 양주시 옥정동 1025-6,한국교통공단 앞,127.101137,37.83199632,031-8082-7316,경기도,양주시,19990101
275,7. 능호관이인상공원(모정교다리 인근),간이운동장,,경기 양주시 옥정동 945-4,(회암천변-3개소),127.0912437,37.83288833,031-8082-7316,경기도,양주시,19990101
276,7. 능호관이인상공원-2,간이운동장,,경기 양주시 옥정동 976-1,,127.0919514,37.83298796,031-8082-7316,경기도,양주시,19990101
277,7.향나무공원,간이운동장,10424,경기도 고양시 일산동구 백석동 1437,,126.7801183,37.64457308,031-8075-6262,경기도,고양시,20180131
278,71호(파랑새) 어린이공원,간이운동장,463869,경기 성남시 분당구 금곡동 183,파랑새어린이공원,127.106402,37.35507828,031-729-7463,경기도,성남시,20180624
279,71호(파랑새) 어린이공원,간이운동장,,경기 성남시 분당구 금곡동 183,,127.106402,37.35507828,031-729-7464,경기도,성남시,20181105
280,7호 어린이공원(노인복지공원),간이운동장,,경상남도 하동군 악양면,,127.692308,35.152261,033-660-3817,경상남도,하동군,20161231
281,8.충효동 경로당,간이운동장,38057,경상북도 경주시 충효동 923-1 충효야척마을회관,,129.1606702,35.85766691,054-779-8422,경상북도,경주시,20180101
282,88CC 골프연습장,골프연습장,16893,경기도 용인시 기흥구 청덕동 80-2 88컨트리클럽,,127.1604623,37.30673267,031-679-9841,경기도,용인시,19980427
283,88CC 골프장,골프장,16893,경기도 용인시 기흥구 청덕동 80-2 88컨트리클럽,,127.1604623,37.30673267,031-679-9841,경기도,용인시,19880427
284,9. 독바위공원(야외무대)미디어파사드,간이운동장,11470,경기도 양주시 옥정동 889-2,야외무대(미디어파사드),127.0792519,37.82138027,031-8082-7316,경기도,양주시,19990101
285,9.서악동 경로당(능남길 2),간이운동장,38064,경상북도 경주시 서악동 824 농남노보마을회관,,129.1871809,35.82375601,054-779-8422,경상북도,경주시,20180101
286,9통소공원,간이운동장,36655,경상북도 안동시 평화동 167-32,평화동 167-48,128.713618,36.56706931,054-840-4853,경상북도,안동시,20120101
287,BMX경기장,기타시설,27128,충청북도 제천시 송학면 도화리 992-6,,128.1905552,37.1936637,043-641-5593,충청북도,제천시,20101001
288,BMX경기장,기타시설,25042,강원특별자치도 양양군 손양면 학포리 337,,128.6558,38.06218373,033-670-2885,강원특별자치도,양양군,20151214
289,DGB대구은행파크,축구장,41594,대구광역시 북구 고성동3가 2,,128.5874274,35.88167478,053-222-3600,대구광역시,,20190124
290,KBS연접공원,간이운동장,36647,경상북도 안동시 태화동 666 KBS안동방송국,,128.7106834,36.57009956,054-840-4841,경상북도,안동시,20100101
291,KT앞 둔치,간이운동장,,서울특별시 서초구 양재1동,,127.030658,37.470604,02-2155-7101,서울특별시,서초구,20161231
292,MTV 체육시설(다목적코트63호),기타시설,15118,경기도 시흥시 정왕동 2606-3,,126.7042471,37.32333218,031-310-3159,경기도,시흥시,20190623
293,MTV 체육시설(풋살),풋살장,,경기 시흥시 정왕동 2609-6,,126.7095454,37.32097019,031-310-3159,경기도,시흥시,19000101
294,M아이리스 텔 앞,간이운동장,210130,강원특별자치도 강릉시 강문동 산 45-2,,128.9255741,37.78837803,033-640-5986,강원특별자치도,강릉시,20180823
295,SK뷰,간이운동장,,서울특별시 서초구 반포4동,,126.993414,37.497537,02-3477-1192,서울특별시,서초구,20161231
296,UN조각공원,간이운동장,,부산광역시 남구 대연4동,,129.097475,35.129535,051-607-4372,부산광역시,남구,19000101
297,X-게임장,기타시설,41107,대구광역시 동구 율하동  1626,율하체육공원 내,128.69284,35.85992363,053-662-2862,대구광역시,동구,20090101
298,[01]구일역 제방위(안양교방향),간이운동장,,서울특별시 구로구 서울특별시 구로구 구로동 642-76,,126.8710094,37.49508826,02-860-2023,서울특별시,구로구,19990101
299,[02]구일역 제방위(구일역 1번출구) 옆),간이운동장,,서울특별시 구로구 서울특별시 구로구 구로동 642-76,,126.8710094,37.49508826,02-860-2023,서울특별시,구로구,19990101
300,[03]어린이야구연습장 옆,간이운동장,,서울특별시 구로구 서울특별시 구로구 구로동 621-8,,126.8705261,37.49993875,02-860-2023,서울특별시,구로구,19990101
301,[04]족구장B 위쪽,간이운동장,,서울특별시 구로구 서울특별시 구로구 구로동 621-9,,126.8723827,37.50147248,02-860-2023,서울특별시,구로구,19990101
302,[05]오금교 하부,간이운동장,8205,서울특별시 구로구 신도림동 288-11,신정동 871-10(오금교 하부),126.8768748,37.50986551,02-860-2023,서울특별시,구로구,19990101
303,[06]안양천 제방(오금교~인라인스케이트장),간이운동장,,서울특별시 구로구 서울특별시 구로구 신도림동 285-35,,126.8756091,37.50900111,02-860-2023,서울특별시,구로구,19990101
304,[07]안양천 제방(오금교~신정교),간이운동장,,서울특별시 구로구 서울특별시 구로구 신도림동 282-39,,126.8769366,37.51060989,02-860-2023,서울특별시,구로구,19990101
305,[08]축구장C 그늘막 옆,간이운동장,8200,서울특별시 구로구 신도림동 271-25 신도림삼성쉐르빌1,축구장C 그늘막 옆,126.8813936,37.51432154,02-860-2023,서울특별시,구로구,19990101
306,[09]안양천 제방(축구장C 위쪽),간이운동장,,서울특별시 구로구 서울특별시 구로구 신도림동 271-86,,126.8800797,37.51416668,02-860-2023,서울특별시,구로구,19990101
307,[10]동양미래대학교 앞 농구장,간이운동장,8221,서울특별시 구로구 고척동 62-121,고척동 276-3(동양미래대학교 농구장 앞),126.8705242,37.49993866,02-860-2023,서울특별시,구로구,19990101
308,[11]고척교 하부(고척돔구장 앞),간이운동장,8221,서울특별시 구로구 고척동 62-160 동양미래대학교,고척교 하부,126.86772,37.50061626,02-860-2023,서울특별시,구로구,19990101
309,[12]신정교사거리 하부,간이운동장,,서울특별시 구로구 서울특별시 구로구 신도림동 271-84,,126.8822678,37.51530055,02-860-2023,서울특별시,구로구,19990101
310,[13]우성아파트 3창 앞(제방아래),간이운동장,,서울특별시 구로구 서울특별시 구로구 신도림동 323-4,신도림동 325-1,126.8849718,37.5134075,02-860-2023,서울특별시,구로구,19990101
311,[14]우성아파트 2차 앞(제방위),간이운동장,,서울특별시 구로구 서울특별시 구로구 신도림동 325-1,,126.886592,37.51310272,02-860-2023,서울특별시,구로구,19990101
312,[15]도림천 농구장 제방위,간이운동장,,서울특별시 구로구 서울특별시 구로구 신도림동 330-6,,126.8898483,37.51092177,02-860-2023,서울특별시,구로구,19990101
313,[16]신도림푸르지오 2차 앞,간이운동장,,서울특별시 구로구 서울특별시 구로구 신도림동 330-4,,126.8897616,37.51139382,02-860-2023,서울특별시,구로구,19990101
314,[17]대림역 하부,간이운동장,8305,서울특별시 구로구 구로동 125-83 구두수선대,대림역 하부,126.8952099,37.49179353,02-860-2023,서울특별시,구로구,19990101
315,[18]구로디지털단지역 하부,간이운동장,,서울특별시 구로구 서울특별시 구로구 구로동 810-3,,126.9010795,37.48536476,02-860-2023,서울특별시,구로구,19990101
316,[19]목감교 아래,간이운동장,,서울특별시 구로구 서울특별시 구로구 개봉동 480-5,개봉동 372-1,126.8624361,37.4910601,02-860-2023,서울특별시,구로구,19990101
317,[20]I-PARK(109동) 앞,간이운동장,,서울특별시 구로구 서울특별시 구로구 개봉동 372-3,,126.8605713,37.48931717,02-860-2023,서울특별시,구로구,19990101
318,[21]철산2교 우측,간이운동장,,서울특별시 구로구 서울특별시 구로구 개봉동 372-4,,126.8595333,37.48811219,02-860-2023,서울특별시,구로구,19990101
319,[22]철산2교 좌측,간이운동장,,서울특별시 구로구 서울특별시 구로구 개봉동 372-5,,126.8586849,37.48713449,02-860-2023,서울특별시,구로구,19990101
320,[23]개봉교하부,간이운동장,8334,서울특별시 구로구 개봉동 403-97 구두수선대,개봉교 하부,126.8564466,37.48655443,02-860-2023,서울특별시,구로구,19990101
321,[24]인라인스케이트장 우측,간이운동장,,서울특별시 구로구 서울특별시 구로구 개봉동 376-3,개봉동 376-1,126.8540064,37.48347071,02-860-2023,서울특별시,구로구,19990101
322,[26]개명교 좌측,간이운동장,,서울특별시 구로구 서울특별시 구로구 개봉동 314-117,,126.8497402,37.4818868,02-860-2023,서울특별시,구로구,19990101
323,[27]고척동 삼환로즈빌 앞 보도,간이운동장,,서울특별시 구로구 서울특별시 구로구 고척동 336,,126.8580404,37.49786651,02-860-2023,서울특별시,구로구,19990101
324,[28]오류역광장,간이운동장,8272,서울특별시 구로구 오류동 66,오류역광장,126.8449041,37.49519392,02-860-2023,서울특별시,구로구,19990101
325,[교육체육과-10]남부1마을 체육시설,간이운동장,,경남 양산시 남부동 840,,129.0394237,35.34026152,055-392-7302,경상남도,양산시,20210601
326,e편한세상 배드민턴장,간이운동장,,충청남도 계룡시 두마면,,127.265125,36.269767,042-840-2423,충청남도,계룡시,20161231
327,e편한세상아파트 헬스장,간이운동장,,전라북도 익산시 모현동,,126.946395,35.947465,063-859-3511,전북특별자치도,익산시,20161231
328,가강골어린이공원 동네체육시설,간이운동장,,충청북도 청주시 흥덕구 운천동 1162,,127.4760254,36.64668135,043-201-4435,충청북도,청주시,20170426
329,가경공원 동네체육시설,간이운동장,,충청북도 청주시 흥덕구 가경동 산 89-4,,127.4369424,36.61240431,043-201-1872,충청북도,청주시,20011010
330,가경동 홍골방죽 동네체육시설,간이운동장,28382,충청북도 청주시 흥덕구 가경동 334-1 가경어린이집,홍골방죽,127.4362153,36.61632654,043-201-7032,충청북도,청주시,19990101
331,가곡 체육시설,간이운동장,50409,경상남도 밀양시 상동면 가곡리 282-1,,128.7821504,35.5328462,055-359-5780,경상남도,밀양시,20160101
332,가곡 체육시설,간이운동장,50409,경상남도 밀양시 상동면 가곡리 282-1,,0,0,055-359-5780,경상남도,밀양시,20160101
333,가곡 파크골프장,골프연습장,,경남 밀양시 가곡동 744-4,.,128.7614117,35.47515185,055-359-4675,경상남도,밀양시,20200501
334,가곡1리 까치골 경로당,간이운동장,36244,경상북도 봉화군 상운면 가곡리 1061 가곡1리까치골경로당,,128.7467293,36.83906782,054-679-5913,경상북도,봉화군,20180101
335,가곡1리 동네체육시설,간이운동장,28131,충청북도 청주시 청원구 오창읍 가곡리 353-1 가곡리마을회관,,127.4588178,36.72226884,043-201-8976,충청북도,청주시,20220405
336,가곡1리 마을 체육시설,간이운동장,36760,경상북도 안동시 풍천면 가곡리 395-4 가곡보건진료소,,128.525007,36.57175853,054-840-4211,경상북도,안동시,20190423
337,가곡1리 밀레니엄숲,간이운동장,755811,경북 봉화군 상운면 가곡리 398-2,,128.7560545,36.83569045,054-679-5913,경상북도,봉화군,20100101
338,가곡1리 소공원,간이운동장,755811,경북 봉화군 상운면 가곡리 417-11,,128.7548476,36.83172952,054-679-5913,경상북도,봉화군,20160101
339,가곡1통 마을회관 체육시설,간이운동장,,경남 밀양시 가곡동 662-18,,128.7667527,35.47764489,055-359-5780,경상남도,밀양시,20100101
340,가곡1통 체육시설,간이운동장,,경남 밀양시 가곡동 706-4,,128.7645413,35.47998867,055-359-5780,경상남도,밀양시,20140101
341,가곡2리 경로당 체육시설,간이운동장,36760,경상북도 안동시 풍천면 가곡리 907-4,가곡2리경로당,128.5232173,36.56467994,054-840-4211,경상북도,안동시,20220420
342,가곡2리 동네체육시설,간이운동장,28131,충청북도 청주시 청원구 오창읍 가곡리 405,가곡리 경로당,127.4615775,36.72353848,043-201-8976,충청북도,청주시,20200618
343,가곡2리 마을회관,간이운동장,36244,경상북도 봉화군 상운면 가곡리 754-6 가곡2리새마을회관,,128.7370815,36.85498011,054-679-5913,경상북도,봉화군,20170907
344,가곡2리 반송버스정류장,간이운동장,755811,경북 봉화군 상운면 가곡리 806-4,,128.7396732,36.85396914,054-679-5913,경상북도,봉화군,20160101
345,가곡2통 체육시설,간이운동장,,경남 밀양시 가곡동 709-45,,128.7640421,35.47904766,055-359-5780,경상남도,밀양시,20140101
346,가곡3리 마을쉼터,간이운동장,36244,경상북도 봉화군 상운면 가곡리 216,,128.7607475,36.85498861,054-679-5913,경상북도,봉화군,20160101
347,가곡3통 체육시설,간이운동장,50442,경상남도 밀양시 가곡동 728-407,,128.7622765,35.47779191,055-359-5780,경상남도,밀양시,20150101
348,가곡4통(멍에실) 체육시설,간이운동장,50446,경상남도 밀양시 가곡동 277-4,가곡동 808,128.7742529,35.47360726,055-359-5780,경상남도,밀양시,20150101
349,가곡4통(정자) 체육시설,간이운동장,,경남 밀양시 가곡동 188-4,,128.7806192,35.47776311,055-359-5780,경상남도,밀양시,20130101
350,가곡4통(천신궁) 체육시설,간이운동장,50446,경상남도 밀양시 가곡동 324,가곡동 801,128.7789728,35.47612033,055-359-5780,경상남도,밀양시,20100101
351,가곡5통 체육시설,간이운동장,,경남 밀양시 남포동 41-1,,128.7860774,35.46650614,055-359-5780,경상남도,밀양시,20120101
352,가곡게이트볼장,전천후게이트볼장,50442,경상남도 밀양시 가곡동 816-2,,128.7621827,35.48123873,055-359-5780,경상남도,밀양시,20040101
353,가곡농구장,기타시설,50442,경상남도 밀양시 가곡동 816-2,,128.7621827,35.48123873,055-359-5780,경상남도,밀양시,20220101
354,가곡동 대송파크 앞 체육시설,간이운동장,,경남 밀양시 가곡동 448-1,,128.7737982,35.47323139,055-359-5780,경상남도,밀양시,20190101
355,가곡동 펌프트랙 연습장 체육시설,간이운동장,,경남 밀양시 가곡동 493-11,,128.7734051,35.47076184,055-359-5780,경상남도,밀양시,20220101
356,가곡리 게이트볼장,간이운동장,37136,경상북도 상주시 외서면 가곡리 680-4,가곡리680,128.1067043,36.47855785,054-537-8413,경상북도,상주시,20170101
357,가곡리 동네체육시설,간이운동장,,경기 남양주시 화도읍 가곡리 398-9,,127.2981187,37.69068786,031-590-4854,경기도,남양주시,19000101
358,가곡리 생활체육시설,기타시설,12032,경기도 남양주시 화도읍 가곡리 277-7,,127.3066994,37.68330625,031-590-4854,경기도,남양주시,20090813
359,가곡리 소공원 내,간이운동장,36244,경상북도 봉화군 상운면 가곡리 1193-10,,128.7548476,36.83172952,054-679-6133,경상북도,봉화군,20160101
360,가곡리 체육시설,간이운동장,28131,충청북도 청주시 청원구 오창읍 가곡리 233,,127.4571065,36.72198112,043-201-8976,충청북도,청주시,20191217
361,가곡리(머티)동네체육시설,간이운동장,37135,경상북도 상주시 외서면 가곡리 551-8,가곡리551-8,128.0929176,36.48385831,054-537-8413,경상북도,상주시,20180702
362,가곡리(버름배미)동네체육시설,간이운동장,37136,경상북도 상주시 외서면 가곡리 57 외서면보건지소,가곡리 57-5,128.1077827,36.48068573,054-537-8413,경상북도,상주시,20181212
363,가곡리(오가실) 동네체육시설,간이운동장,37135,경상북도 상주시 외서면 가곡리 348,,128.0916362,36.47525395,054-537-8914,경상북도,상주시,20250228
364,가곡리동네체육시설,간이운동장,,전라북도 장수군 천천면,,127.498516,35.697593,031-590-4856,전북특별자치도,장수군,20161231
365,가곡유소년축구장,축구장,627800,경남 밀양시 가곡동 529-2,,128.7674064,35.47145427,055-359-4640,경상남도,밀양시,20190101
366,가곡체육공원,기타시설,,경남 밀양시 가곡동 529-2,,128.7674055,35.47145437,055-359-4640,경상남도,밀양시,20040101
367,가구1리경로당,간이운동장,36611,경상북도 안동시 와룡면 가구리 597-1,,128.7758893,36.61621137,054-856-1534,경상북도,안동시,20170101
368,가구2리 경로당,간이운동장,36611,경상북도 안동시 와룡면 가구리 421 가구2리노인정,,128.7822258,36.61646633,054-856-2661,경상북도,안동시,20160101
369,가꿀공원,간이운동장,,서울특별시 서초구 방배4동,,126.987619,37.487916,02-2155-6860,서울특별시,서초구,20161231
370,가남경로당,간이운동장,,부산광역시 부산진구 가야1동,,129.04476,35.154119,051-605-4092,부산광역시,부산진구,20161231
371,가남전천후게이트볼장,전천후게이트볼장,12662,경기도 여주시 가남읍 태평리 174 가남게이트볼장,,127.5452191,37.20447185,031-887-2972,경기도,여주시,20161107
372,가남체육공원축구장,축구장,12662,경기도 여주시 가남읍 태평리 산65-5,,127.5349062,37.20166671,031-887-2972,경기도,여주시,19990101
373,가남초 뒤 쉼터,간이운동장,,부산광역시 부산진구 가야1동,,129.043978,35.154435,051-605-4092,부산광역시,부산진구,20161231
374,가납2리 동네체육시설,간이운동장,11415,경기도 양주시 광적면 가납리 70-1 가납2리마을회관,,127.0007086,37.83039694,031-8082-5647,경기도,양주시,20220802
375,가납리 동네체육시설,간이운동장,11416,경기도 양주시 광적면 가납리 463-6,가납리 산73,126.9948259,37.81407032,031-8082-5647,경기도,양주시,20190129
376,가능 리틀야구연습장,야구장,480100,경기 의정부시 가능동 산 28-1,,127.0156276,37.75316432,031-828-4073,경기도,의정부시,19000101
377,가덕생활체육공원게이트볼장,전천후게이트볼장,28203,충청북도 청주시 상당구 가덕면 인차리 산25-1,,127.5500027,36.54812276,043-270-7378,충청북도,청주시,20120627
378,가덕생활체육공원인라인스케이트장,롤러스케이트장,28203,충청북도 청주시 상당구 가덕면 인차리 산25-1,,127.5508356,36.54808314,043-270-7378,충청북도,청주시,20120601
379,가덕생활체육공원축구장,축구장,360851,충북 청주시 상당구 가덕면 인차리 산 25-1,,127.5478194,36.54744299,043-270-7378,충청북도,청주시,20120601
380,가도리 게이트볼장,간이운동장,36928,경상북도 문경시 호계면 가도리 322-4,,128.2163129,36.65115245,054-550-8646,경상북도,문경시,19990101
381,가동마을 체육시설,간이운동장,,부산광역시 강서구 녹산동,,128.881917,35.165789,051-970-4122,부산광역시,강서구,19990101
382,가든목화아파트 옆,간이운동장,755806,경북 봉화군 봉화읍 내성리 325,,128.7465019,36.89231574,054-679-5014,경상북도,봉화군,20200302
383,가락3리 동네 체육시설,간이운동장,28113,충청북도 청주시 흥덕구 옥산면 가락리 766-5,,127.3730763,36.66715064,043-201-7625,충청북도,청주시,20180620
384,가락4리 동네체육시설,간이운동장,28302,충청북도 청주시 흥덕구 옥산면 가락리 136-18,,127.3919369,36.66210864,043-201-7625,충청북도,청주시,20170426
385,가락근린공원 동네체육시설,간이운동장,,충북 청주시 흥덕구 옥산면 가락리 986,,127.3921723,36.67323498,043-201-4433,충청북도,청주시,20191230
386,가락근린공원 배드민턴장,간이운동장,,충북 청주시 흥덕구 옥산면 가락리 986,,127.3921723,36.67323498,043-201-4433,충청북도,청주시,20191230
387,가락동 생활체육시설,간이운동장,,부산광역시 강서구 죽림동 1095,,128.9045416,35.19738076,051-970-4122,부산광역시,강서구,19990101
388,가락리 동네체육시설,간이운동장,28113,충청북도 청주시 흥덕구 옥산면 가락리 766-5,,127.3730763,36.66715064,043-201-7625,충청북도,청주시,20170426
389,가락초등학교 체육시설,간이운동장,,부산광역시 강서구 가락동,,128.895884,35.195878,051-970-4122,부산광역시,강서구,19990101
390,가람공원,간이운동장,39190,경상북도 구미시 옥계동 756-6,가람,128.4237774,36.13535349,054-480-5588,경상북도,구미시,19000101
391,가람동 저류지 풋살경기장,축구장,,세종특별자치시 가람동 965,,127.2442388,36.46517243,044-300-5333,세종특별자치시,세종시,19000101
392,가람동 저류지 풋살경기장(어린이용),축구장,,세종특별자치시 가람동 965,,127.2442388,36.46517243,044-300-5333,세종특별자치시,세종시,19000101
393,가랍 체육시설,간이운동장,,전남 해남군 화원면 성산리 206-4,,126.3536333,34.64024972,061-531-3613,전라남도,해남군,19000101
394,가례게이트볼장,간이운동장,,경상남도 의령군 가례면,,128.245631,35.326778,055-570-4404,경상남도,의령군,20161231
395,가례게이트볼장,간이운동장,52137,경상남도 의령군 가례면 가례리 468-1 가례면게이트볼회관,,128.2455652,35.32678956,055-570-4404,경상남도,의령군,20060101
396,가례공설운동장,축구장,52133,경상남도 의령군 가례면 대천리 54 가례면그라운드골프회관,,128.2260048,35.32693202,055-570-2422,경상남도,의령군,20091021
397,가례리 마을회관,간이운동장,39697,경상북도 김천시 대덕면 가례리 584-1 가례리마을회관,,127.987887,35.94820032,054-421-2278,경상북도,김천시,20190101
398,가례마을체육공원,간이운동장,,경상남도 밀양시 무안면,,128.597104,35.489118,055-359-5810,경상남도,밀양시,20161231
399,가례소공원운동시설,간이운동장,,경남 의령군 가례면 가례리 476-4,,128.2465963,35.32652811,055-570-4404,경상남도,의령군,20080101
400,가례쉼터운동시설,간이운동장,,경남 의령군 가례면 가례리 443-13,,128.2448147,35.32530471,055-570-4404,경상남도,의령군,20080101
401,가로수로 동네체육시설,간이운동장,361801,충북 청주시 흥덕구 가경동 1428,,127.4309695,36.63099119,043-201-7233,충청북도,청주시,20170426
402,가룡마을체육공원운동기구,간이운동장,,경상남도 고성군 하일면,,128.209875,34.941236,055-670-5103,경상남도,고성군,20161231
403,가류1리경로당,간이운동장,36610,경상북도 안동시 와룡면 가류리 1315-2 가류1리경로당,,128.8203817,36.64332005,054-840-4061,경상북도,안동시,19990101
404,가류2리 마을쉼터,간이운동장,,경북 안동시 와룡면 가류리 1099-2,마을쉼터,128.8238997,36.62839306,054-840-4061,경상북도,안동시,20240628
405,가류2리 버스승강장,간이운동장,,경북 안동시 와룡면 가류리 278,버스승강장,128.842531,36.61837329,054-840-4061,경상북도,안동시,20240708
406,가르네마을 쉼터,간이운동장,36601,경상북도 안동시 녹전면 사천리 496,,128.7435874,36.76975549,054-840-4664,경상북도,안동시,20130101
407,가르뱅이경로당동네체육시설,간이운동장,41750,대구광역시 서구 상리동 237-1,,128.5302857,35.88285953,053-663-2173,대구광역시,서구,19990101
408,가르뱅이공원 동네체육시설,간이운동장,41750,대구광역시 서구 상리동 산262-3,,128.5246781,35.88126336,053-663-2173,대구광역시,서구,19990101
409,가리게이트볼장,전천후게이트볼장,456911,경기 안성시 일죽면 가리 581-2,,127.4894907,37.08566834,031-678-6863,경기도,안성시,20110101
410,가리새수변공원 체육시설,간이운동장,,부산 강서구 범방동 1913,,128.8874292,35.14286342,051-970-4121,부산광역시,강서구,19000101
411,가마 체육시설,간이운동장,59001,전라남도 해남군 화원면 후산리 104 가마마을회관,,126.3013234,34.70150798,061-531-3613,전라남도,해남군,19000101
412,가막1리(마을회관) 동네체육시설,간이운동장,37275,경상북도 상주시 모서면 가막리 414,,127.9458718,36.35995891,054-537-8296,경상북도,상주시,20160101
413,가막1리(버스정류장)동네체육시설,간이운동장,,경북 상주시 모서면 화현리 673-10,,127.9350369,36.35315945,054-537-8910,경상북도,상주시,20221018
414,가막2리(마을회관) 동네체육시설,간이운동장,37275,경상북도 상주시 모서면 가막리 145-3,,127.95982,36.3555366,054-537-8296,경상북도,상주시,20170101
415,가복(본동)마을 체육시설,간이운동장,50405,경상남도 밀양시 무안면 마흘리 321-1 가복복지회관,,128.6915652,35.4993699,055-359-5780,경상남도,밀양시,20150101
416,가복(정동)마을 체육시설,간이운동장,50405,경상남도 밀양시 무안면 마흘리 922 가복복지회관,,128.6932598,35.49229439,055-359-5780,경상남도,밀양시,20100101
417,가봉리 마을회관 주민생활 체육시설,간이운동장,58159,전라남도 화순군 춘양면 가봉리 563 가봉리사무소,,126.9565754,34.94001035,061-379-5032,전라남도,화순군,19000101
418,가북면전전후게이트볼장,전천후게이트볼장,50117,경상남도 거창군 가북면 우혜리 1497-5 가북면보건지소,,127.99498,35.76473843,055-940-7863,경상남도,거창군,20110101
419,가북용산마을게이트볼장,전천후게이트볼장,50116,경상남도 거창군 가북면 용산리 1076-2,,127.9919433,35.73942207,055-940-8720,경상남도,거창군,20160101
420,가사대노인회관,간이운동장,,경상남도 함안군 산인면,,128.437323,35.283378,055-580-3855,경상남도,함안군,20161231
421,가사리 쉼터,간이운동장,36603,경상북도 안동시 도산면 가송리 342-1,가사리쉼터,128.8972208,36.76460737,054-840-4611,경상북도,안동시,20160101
422,가사어린이공원(농구장),간이운동장,,경기 안성시 가사동 178,,127.2910688,37.01202849,031-678-6867,경기도,안성시,20180101
423,가산1리,간이운동장,37358,경상북도 의성군 가음면 가산리 487 가산1리노인회관,,128.7352724,36.22354135,054-830-5145,경상북도,의성군,20180101
424,가산2리,간이운동장,37358,경상북도 의성군 가음면 가산리 737,,128.7301833,36.22885536,054-830-5145,경상북도,의성군,19000101
425,가산리게이트볼장,전천후게이트볼장,32516,충청남도 공주시 의당면 가산리 347,,127.1825776,36.55410346,041-840-2528,충청남도,공주시,20010101
426,가산마을(1) 체육시설,간이운동장,,경남 밀양시 부북면 가산리 205-1,,128.701533,35.5330175,055-359-5780,경상남도,밀양시,20060816
427,가산마을(2) 체육시설,간이운동장,50401,경상남도 밀양시 부북면 가산리 50,,128.702167,35.5312901,055-359-5780,경상남도,밀양시,20150520
428,가산마을회관,간이운동장,57256,전라남도 장성군 삼서면 홍정리 251 마을회관,,126.6939377,35.23149058,061-390-7255,전라남도,장성군,20170301
429,가산면 가산리 가산2리 체육시설,간이운동장,718911,경북 칠곡군 가산면 가산리 330-4,,128.5853636,36.05663671,054-979-5413,경상북도,칠곡군,20130101
430,가산면 다부리 다부1리 체육시설(마을회관 옆 쉼터 부근),간이운동장,718912,경북 칠곡군 가산면 다부리 338-6,,128.519729,36.04607864,054-979-5413,경상북도,칠곡군,20090101
431,가산면 다부리 다부1리 체육시설(자율방범대 사무실 앞),간이운동장,39851,경상북도 칠곡군 가산면 다부리 255-46,,128.520294,36.04753131,054-979-5413,경상북도,칠곡군,20130101
432,가산면 다부리 다부리게이트볼장,간이운동장,39851,경상북도 칠곡군 가산면 다부리 255-11,,128.5203366,36.04812912,054-979-5382,경상북도,칠곡군,20190827
433,가산면 석우리 석우1리 체육시설,간이운동장,718913,경북 칠곡군 가산면 석우리 550,,128.5439276,36.10331501,054-979-5413,경상북도,칠곡군,20130201
434,가산면 석우리 석우2리 체육시설,간이운동장,718913,경북 칠곡군 가산면 석우리 945,,128.5377095,36.10241458,054-979-5413,경상북도,칠곡군,20110301
435,가산면 송학리 가산게이트볼장,간이운동장,,경상북도 칠곡군 칠곡군 가산면 송학리 477-1,,128.5192919,36.10045787,054-979-5413,경상북도,칠곡군,19000101
436,가산면 송학리 가산면민체육공원 체육시설,간이운동장,718911,경북 칠곡군 가산면 송학리 268,,128.5189186,36.10319138,054-979-5413,경상북도,칠곡군,20120101
437,가산면 송학리 송학2리 체육시설,간이운동장,39850,경상북도 칠곡군 가산면 송학리 254-8,,128.5200534,36.10446018,054-979-5413,경상북도,칠곡군,20140401
438,가산면 심곡리 심곡리 체육시설,간이운동장,39850,경상북도 칠곡군 가산면 심곡리 328-1,,128.4955078,36.1135749,054-979-5413,경상북도,칠곡군,20120101
439,가산면 천평리 천평리 체육시설(농협 옆),간이운동장,39852,경상북도 칠곡군 가산면 천평리 38 가산파출소,,128.5390551,36.08646191,054-979-5413,경상북도,칠곡군,20070101
440,가산면 천평리 천평리 체육시설(읏천평 마을쉼터),간이운동장,718912,경북 칠곡군 가산면 천평리 305,,128.5400731,36.0785514,054-979-5413,경상북도,칠곡군,20151201
441,가산면 학산리 학산1리 체육시설,간이운동장,718912,경북 칠곡군 가산면 학산리 547-3,,128.4978223,36.05295786,054-979-5413,경상북도,칠곡군,20090101
442,가산면 학산리 학산2리 체육시설,간이운동장,718912,경북 칠곡군 가산면 학산리 128-5,,128.508679,36.05221615,054-979-5413,경상북도,칠곡군,20121201
443,가산면 학하리 고남리 경로당,간이운동장,39849,경상북도 칠곡군 가산면 학하리 1256-3,,128.4776978,36.09479661,054-979-5413,경상북도,칠곡군,20180301
444,가산면 학하리 학하1리 체육시설,간이운동장,39849,경상북도 칠곡군 가산면 학하리 83-3 학하1리회관,,128.4883952,36.10177587,054-979-5413,경상북도,칠곡군,20160325
445,가산면 학하리 학하3리 체육시설,간이운동장,718913,경북 칠곡군 가산면 학하리 1212-50,,128.4908934,36.10400122,054-979-5413,경상북도,칠곡군,20120501
446,가산면민운동장테니스장,간이운동장,39850,경상북도 칠곡군 가산면 송학리 78-4,,128.5199698,36.10334746,054-979-5202,경상북도,칠곡군,20131028
447,가산면풋살구장,기타시설,11164,경기도 포천시 가산면 마산리 286-1,,127.1852617,37.83858569,031-538-2105,경기도,포천시,20181211
448,가송2리 체육시설,간이운동장,,충청남도 천안시 동남구 풍세면,,127.139307,36.734355,041-521-4051,충청남도,천안시,20161231
449,가송농촌전통테마마을,간이운동장,36603,경상북도 안동시 도산면 가송리 484-1,가송농촌전통테마마을,128.889534,36.77074844,054-840-4611,경상북도,안동시,20240322
450,가송리 쉼터,간이운동장,,경북 안동시 도산면 가송리 756-1,가송리 쉼터,128.8694384,36.77262832,054-840-4612,경상북도,안동시,20230309
451,가송리팜카페,간이운동장,36603,경상북도 안동시 도산면 가송리 453-2,,128.8891985,36.76681011,054-840-4612,경상북도,안동시,20210325
452,가수 어린이공원,간이운동장,,경기도 오산시 초평동,가수동 113-2,127.051102,37.145195,031-8036-7648,경기도,오산시,20161009
453,가수1리 동네체육시설,간이운동장,770841,경북 영천시 고경면 가수리 194,,129.0800228,36.00226488,054-339-7814,경상북도,영천시,20061101
454,가수2리 주민생활체육시설,간이운동장,58102,전라남도 화순군 동복면 가수리 411 동북가수리상가마을짐대,,127.1715925,35.10954653,061-373-9519,전라남도,화순군,20230901
455,가수리 야외 운동기구(2대),간이운동장,,강원특별자치도 정선군 정선읍 가수리 36-7,가수리 36-7,128.6326016,37.31652144,033-560-2606,강원특별자치도,정선군,20220101
456,가수제2어린이공원,간이운동장,,경기도 오산시 초평동,가수동 14-5전 일원,127.048706,37.147717,031-8036-7648,경기도,오산시,20161009
457,가시골공원,간이운동장,39211,경상북도 구미시 봉곡동 4,,128.3163822,36.14279841,054-480-5573,경상북도,구미시,19000101
458,가시리 체육공원,간이운동장,,제주특별자치도 서귀포시 표선면,,126.774826,33.35318,064-760-4418,제주특별자치도,서귀포시,20161231
459,가신1리소규모체육시설,간이운동장,27450,충청북도 충주시 노은면 가신리 356-7,,127.7230964,37.05803416,043-850-2351,충청북도,충주시,20201112
460,가신2리소규모체육시설,간이운동장,27450,충청북도 충주시 노은면 가신리 679,,127.7189362,37.06526174,043-850-2351,충청북도,충주시,20191203
461,가신3리 체육시설,간이운동장,27450,충청북도 충주시 노은면 가신리 486-1 가신3동마을회관,가신3리 다기능회관,127.7309401,37.0566018,043-850-2351,충청북도,충주시,20190426
462,가야1동네체육시설,간이운동장,,부산광역시 부산진구 가야1동,,129.042831,35.153662,051-605-4092,부산광역시,부산진구,20161231
463,가야1치안센터앞 쉼터,간이운동장,,충청남도 천안시 서북구 성환읍,,127.136145,36.914779,051-605-4092,충청남도,천안시,20161231
464,가야3동네체육시설,간이운동장,,부산광역시 부산진구 가야1동,,129.039806,35.150108,051-605-4092,부산광역시,부산진구,20161231
465,가야5길 쉼터,간이운동장,,부산광역시 부산진구 가야1동,,129.04378,35.153866,051-605-4092,부산광역시,부산진구,20161231
466,가야게이트볼장,간이운동장,,경상남도 함안군 가야읍,,128.397043,35.281451,055-580-3608,경상남도,함안군,20161231
467,가야게이트볼장,간이운동장,50201,경상남도 합천군 가야면 황산리 61-15,가야게이트볼장,128.1365476,35.75834503,055-930-4941,경상남도,합천군,20161231
468,가야곡 게이트볼장,전천후게이트볼장,33020,충청남도 논산시 가야곡면 육곡리 173-1,,127.1593034,36.13761775,041-746-5893,충청남도,논산시,20220215
469,가야국민체육센터,간이운동장,,경상남도 합천군 가야면,,128.136179,35.765998,055-930-4933,경상남도,합천군,20161231
470,가야리 쉼터(새신교 정자 인근),간이운동장,,경북 경산시 진량읍 가야리 511-3,가야리 새신교 건너 정자 인근,128.7992539,35.8477515,053-804-7418,경상북도,경산시,20230425
471,가야정,국궁장,12616,경기도 여주시 강천면 간매리 171,,127.7052633,37.27389645,031-887-2972,경기도,여주시,20161107
472,가야체육문화센터(에어로빅),간이운동장,,경상남도 합천군 가야면,,128.13858,35.762663,055-930-4941,경상남도,합천군,20161231
473,가야테니스장,간이운동장,,경상남도 합천군 가야면,,128.136427,35.757786,055-930-4941,경상남도,합천군,20161231
474,가야하천변소공원(1),간이운동장,,경기 양주시 백석읍 복지리 97-1,,126.9931886,37.78548457,031-8082-7311,경기도,양주시,20211224
475,가야하천변소공원(2),간이운동장,,경기 양주시 백석읍 복지리 76-1,,126.9905715,37.78358417,031-8082-7311,경기도,양주시,20211224
476,가양 9-1 단지,간이운동장,,서울특별시 강서구 가양3동,,126.862821,37.560002,02-2668-7753,서울특별시,강서구,20161231
477,가양 9-2단지,간이운동장,,서울특별시 강서구 가양3동,,126.863738,37.558575,02-2668-6147,서울특별시,강서구,20161231
478,가양2단지 성지,간이운동장,,서울특별시 강서구 가양1동,,126.846587,37.571013,02-6735-4805,서울특별시,강서구,20161231
479,가양5단지,간이운동장,,서울특별시 강서구 가양2동,,126.853522,37.564629,02-2668-7000,서울특별시,강서구,20161231
480,가양강변 3단지,간이운동장,,서울특별시 강서구 가양2동,,126.856279,37.564614,02-2668-7755,서울특별시,강서구,20161231
481,가양레포츠센터,생활체육관,7531,서울특별시 강서구 가양동  1493,,126.8655601,37.55996148,02-3662-9081,서울특별시,강서구,20150509
482,가양레포츠센터 내 축구장,축구장,7531,서울특별시 강서구 가양동 1493,,126.864933,37.55955163,02-3662-9081,서울특별시,강서구,20150509
483,가양리게이트볼장,전천후게이트볼장,11135,경기도 포천시 창수면 가양리 465,,127.1992327,37.9788558,031-538-4402,경기도,포천시,19990101
484,가양시민체육공원,간이운동장,,대전광역시 동구 가양2동,,127.4595,36.347157,042-251-4235,대전광역시,동구,20161231
485,가양주공 7단지,간이운동장,,서울특별시 강서구 가양3동,,126.861591,37.561741,02-2668-3088,서울특별시,강서구,20161231
486,가오치마을 체력단련시설,간이운동장,53004,경상남도 통영시 도산면 오륜리 941-5 가오치마을회관,,128.3213924,34.90531916,055-650-4723,경상남도,통영시,20181126
487,가우디타운 생활체육시설,간이운동장,,경기 동두천시 상봉암동 243-4,,127.0522314,37.94942388,031-860-2144,경기도,동두천시,19000101
488,가운동 테니스장,테니스장,,경기 남양주시 다산동 739,,127.1610672,37.59700223,031-590-1932,경기도,남양주시,20190502
489,가은 청솔공원 파크골프장,파크골프장,36998,경상북도 문경시 가은읍 성저리 231,,128.039282,36.61582198,054-550-6917,경상북도,문경시,20241220
490,가은초등학교 풋살장,간이운동장,36996,경상북도 문경시 가은읍 왕능리 292 가은초등학교,,128.0621276,36.64421285,054-550-8544,경상북도,문경시,20170825
491,가음면 가산1리 운동기구,간이운동장,37358,경상북도 의성군 가음면 가산리 487 가산1리노인회관,,128.7352724,36.22354135,054-830-5145,경상북도,의성군,20180101
492,가음면 가산2,간이운동장,37358,경상북도 의성군 가음면 가산리 737,가산2리,128.7301833,36.22885536,054-830-5145,경상북도,의성군,20160101
493,가음면 귀천3리,간이운동장,37358,경상북도 의성군 가음면 귀천리 624-11 귀천리경로당,,128.717712,36.2315919,054-830-5145,경상북도,의성군,20170101
494,가음면 순호2리,간이운동장,37359,경상북도 의성군 가음면 순호리 550 순호보건진료소,,128.7269527,36.2108889,054-830-5145,경상북도,의성군,20130101
495,가음면 순호3리 경로당,간이운동장,37359,경상북도 의성군 가음면 순호리 933-3 순호3리 경로당,,128.7137862,36.20533655,054-830-5145,경상북도,의성군,20160101
496,가음면 순호3리- 지경,간이운동장,,경북 의성군 가음면 순호리 1117,순호지경,128.7029308,36.20173132,054-830-5145,경상북도,의성군,20190101
497,가음면 양지리,간이운동장,37358,경상북도 의성군 가음면 양지리 330 양지리마을회관,양지리,128.7370686,36.22993093,054-830-5145,경상북도,의성군,20230601
498,가음면 이1리,간이운동장,37358,경상북도 의성군 가음면 이리 759 이리마을회관,,128.7453047,36.25251613,054-830-5145,경상북도,의성군,20190101
499,가음면 이2,간이운동장,37358,경상북도 의성군 가음면 이리 산52 이리경로당,,128.752232,36.24548444,054-830-5145,경상북도,의성군,20170101
500,가음면 장1,간이운동장,,경북 의성군 가음면 장리 산 26,,128.7350516,36.2416482,054-830-5145,경상북도,의성군,20120101
501,가음면 장리 976,간이운동장,,경북 의성군 가음면 장리 976,,128.7204338,36.24210509,054-830-5145,경상북도,의성군,20110101
502,가음면 장리(어울림),간이운동장,37358,경상북도 의성군 가음면 장리 1311,,128.7266792,36.23452878,054-830-5145,경상북도,의성군,20120101
503,가음면 현리1리,간이운동장,37359,경상북도 의성군 가음면 현리리 256-4,,128.765207,36.21498474,054-830-5145,경상북도,의성군,20140101
504,가음면 현리2리,간이운동장,37359,경상북도 의성군 가음면 현리리 1377,,128.7545302,36.21970528,054-830-5145,경상북도,의성군,20130101
505,가음체육관,간이운동장,37358,경상북도 의성군 가음면 가산리 866-1,,128.7289705,36.23284519,054-830-5145,경상북도,의성군,20220701
506,가일1리 노인회관,간이운동장,477851,경기 가평군 설악면 가일리 181-1,,127.4941041,37.60475974,031-580-2242,경기도,가평군,20200121
507,가일2리 마을회관,간이운동장,12473,경기도 가평군 설악면 가일리 92-1 가일2리노인정,,127.5091491,37.59564994,031-580-2242,경기도,가평군,20200121
508,가일리 마을공터02(버스정류장 근처),간이운동장,,경북 경산시 압량읍 가일리 98-1,,128.7843059,35.84301606,053-804-7615,경상북도,경산시,20210101
509,가일리 마을공터03(복지회관 근처),간이운동장,38539,경상북도 경산시 압량읍 가일리 141-3 가일리복지회관,,128.7832309,35.84161113,053-804-7614,경상북도,경산시,20231204
510,가일리 복지회관01,기타체육시설(체력단련장),,경북 경산시 압량읍 가일리 146,복지회관 앞,128.7829422,35.84136049,053-804-7614,경상북도,경산시,20231204
511,가일리다목적실내체육관,전천후게이트볼장,12473,경기도 가평군 설악면 가일리 180-11,,127.4942096,37.60527448,031-580-2147,경기도,가평군,20190201
512,가작마을회관,간이운동장,57217,전라남도 장성군 장성읍 단광리 360-6 가작마을경로당,,126.7941153,35.28135058,061-390-8506,전라남도,장성군,19000101
513,가장근린공원,간이운동장,,경기도 오산시 남촌동,가장동 375-7,127.040271,37.162033,031-8036-7648,경기도,오산시,20161009
514,가재돌공원,간이운동장,,울산광역시 동구 방어동,,129.410041,35.483662,052-209-3754,울산광역시,동구,20161231
515,가재마을 앞 주차장,간이운동장,36226,경상북도 봉화군 봉성면 우곡리 357-1,,128.8238422,36.92831117,054-679-5213,경상북도,봉화군,20200522
516,가정1리(마을공터),간이운동장,,경북 경주시 현곡면 가정리 746,.,129.1518084,35.90491458,054-779-8251,경상북도,경주시,20190501
517,가정2리(마을공터),간이운동장,38044,경상북도 경주시 현곡면 가정리 44-1,마을회관,129.1651103,35.90022404,054-779-8251,경상북도,경주시,20110101
518,가정3리(마을회관),간이운동장,38044,경상북도 경주시 현곡면 가정리 686 가정3리마을회관,.,129.1598911,35.89987213,054-779-8251,경상북도,경주시,20100101
519,가정마을 체육시설,간이운동장,,충청북도 충주시 소태면,,127.877892,37.098095,043-850-2423,충청북도,충주시,19990101
520,가정마을(족구장) 체육시설,간이운동장,,충북 충주시 소태면 야동리 461-2,,127.8777282,37.09801529,043-850-2423,충청북도,충주시,20100604
521,가정마을(족구장)체육시설,간이운동장,380851,충북 충주시 소태면 야동리 461-1,,127.8779146,37.09827458,043-850-6621,충청북도,충주시,20180223
522,가정마을회관,간이운동장,57241,전라남도 장성군 동화면 용정리 573-1 가정 마을회관,,126.7409977,35.27860732,061-390-8477,전라남도,장성군,20230301
523,가조면어린이공원전천후게이트볼장,전천후게이트볼장,50118,경상남도 거창군 가조면 마상리 148-2,,128.0154257,35.70743014,055-940-8733,경상남도,거창군,20120101
524,가조면일부리테니스장,테니스장,,경남 거창군 가조면 일부리 1262,,128.0207752,35.69862869,055-940-8720,경상남도,거창군,20110101
525,가족공원,간이운동장,,울산광역시 동구 남목2동,,129.426668,35.524065,052-209-3745,울산광역시,동구,20161231
526,가좌1리 동네체육시설,간이운동장,28181,충청북도 청주시 서원구 남이면 가좌리 376-1,,127.4599768,36.5796731,043-201-6504,충청북도,청주시,20200822
527,가좌2리 동네체육시설,간이운동장,28105,충청북도 청주시 청원구 오창읍 가좌리 321-1,,127.3793662,36.74115972,043-201-8976,충청북도,청주시,19000101
528,가좌시설녹지,간이운동장,,인천광역시 서구 가좌4동,,126.683979,37.484845,033-560-4800,인천광역시,서구,20161231
529,가좌완충2-2단계,간이운동장,,인천광역시 서구 가좌4동,,126.686043,37.483274,033-560-4800,인천광역시,서구,20161231
530,가좌완충2단계,간이운동장,,인천광역시 서구 가좌4동,,126.686224,37.483184,033-560-4800,인천광역시,서구,20161231
531,가좌완충녹지,간이운동장,,인천광역시 서구 가좌4동,,126.685408,37.483695,033-560-4800,인천광역시,서구,20161231
532,가좌완충녹지1-1,간이운동장,,인천광역시 서구 가좌4동,,126.686452,37.482725,033-560-4800,인천광역시,서구,20161231
533,가좌완충녹지3단계,간이운동장,,인천광역시 서구 가좌4동,,126.680849,37.486882,033-560-4800,인천광역시,서구,20161231
534,가죽고랑 1길 쉼터 체력단련시설,간이운동장,,경상남도 통영시 명정동,422-27,128.416237,34.845369,055-650-4722,경상남도,통영시,20161231
535,가중2리 동네체육시설,간이운동장,28186,충청북도 청주시 상당구 남일면 가중리 408-3,,127.4703427,36.57350311,043-201-5653,충청북도,청주시,20180607
536,가진리 마을 해변 체육시설,간이운동장,,강원특별자치도 고성군 죽왕면,,128.508927,38.372656,033-680-3716,강원특별자치도,고성군,20161231
537,가천리 동네체육시설,간이운동장,38802,경상북도 영천시 신녕면 가천리 183-1 가천리마을회관,,128.7914259,36.0543934,054-339-7212,경상북도,영천시,20240911
538,가톨릭상지대학교 뒤 영남산등산로정자,간이운동장,36685,경상북도 안동시 율세동 산104,,128.7378489,36.56932802,054-840-4702,경상북도,안동시,20230807
539,가평1리 객들 소공원,간이운동장,755821,경북 봉화군 물야면 가평리 194-4,,128.7384484,36.94728902,054-679-5112,경상북도,봉화군,20140101
540,가평1리 두럭실 소공원,간이운동장,,경북 봉화군 물야면 가평리 516-2,,128.7246383,36.95649622,054-679-5113,경상북도,봉화군,20170102
541,가평1리 마을회관 앞,간이운동장,36205,경상북도 봉화군 물야면 가평리 247-3 가평1리회관,,128.7353411,36.94655838,054-679-5112,경상북도,봉화군,20201207
542,가평2리 서리쉼터 앞,간이운동장,36205,경상북도 봉화군 물야면 가평리 109-2,,128.7395414,36.95916982,054-679-5113,경상북도,봉화군,20200522
543,가평썰매장,기타시설,12446,경기도 가평군 상면 덕현리 157-3 가평눈썰매장,,127.4024036,37.75548401,031-580-2147,경기도,가평군,20161107
544,가평야구장,야구장,,경기 가평군 가평읍 대곡리 산 10,가평야구장,127.5044141,37.8246218,031-8078-8034,경기도,가평군,19990101
545,가평읍 대곡리 산책로 운동시설물,간이운동장,,경기도 가평군,,127.5095702,37.83144131,031-580-2147,경기도,가평군,20171128
546,가평읍 자라목 체육공원 운동시설물,간이운동장,,경기도 가평군,,127.5095702,37.83144131,031-580-2147,경기도,가평군,20171128
547,가평조종국민체육센터(조종국민체육센터),생활체육관,12438,경기도 가평군 조종면 현리 420-12 조종국민체육센터,,127.3522008,37.81840762,031-8078-8091,경기도,가평군,19990123
548,가평초등학교,간이운동장,,부산광역시 부산진구 가야2동,,129.024146,35.14832,051-605-4092,부산광역시,부산진구,20161231
549,가포체육시설 배드민턴장,기타시설,51755,경상남도 창원시 마산합포구 가포동 508-55,,128.5600667,35.16775332,055-220-4063,경상남도,창원시,20140101
550,가포체육시설 테니스장,테니스장,51755,경상남도 창원시 마산합포구 가포동 508-55,,128.5600667,35.16775332,055-220-4063,경상남도,창원시,20140101
551,가현마을운동시설,간이운동장,,경상남도 의령군 정곡면,,128.352902,35.349685,055-570-4602,경상남도,의령군,20161231
552,가회보건지소게이트볼장,간이운동장,50226,경상남도 합천군 가회면 덕촌리 273-2 가회 게이트볼구장,가회보건지소게이트볼장,128.0347754,35.43655619,055-930-4587,경상남도,합천군,20161231
553,가회체육공원,축구장,678971,경남 합천군 가회면 덕촌리 420-3,-,128.0366472,35.43412473,055-930-4156,경상남도,합천군,20140101
554,가흥1동 가흥 제3공원(1),간이운동장,750020,경북 영주시 가흥동 1679,,128.607296,36.81785046,054-639-3813,경상북도,영주시,20190326
555,가흥1동 가흥초등학교주변,간이운동장,750020,경북 영주시 가흥동 1951,공원,128.6083684,36.81276147,054-639-7956,경상북도,영주시,20190326
556,가흥1동 강변2차 외벽(1),간이운동장,750020,경북 영주시 가흥동 1384-41,강변2차 외벽,128.6115997,36.81423501,054-639-7956,경상북도,영주시,20200219
557,가흥1동 강변2차 외벽(2),간이운동장,750901,경북 영주시 가흥동 329-1,강변2차 외벽,128.6135403,36.81336895,054-639-7956,경상북도,영주시,20200219
558,가흥1동 강변아파트 앞 도로변(2),간이운동장,36134,경상북도 영주시 가흥동 345,가흥동 1389,128.6136851,36.81620174,054-639-3813,경상북도,영주시,20211123
559,가흥1동 경찰서 뒷산(1),간이운동장,36134,경상북도 영주시 가흥동 356,가흥동 산 40-1,128.6128046,36.81752231,054-639-3813,경상북도,영주시,20160627
560,가흥1동 경찰서 뒷산(2),간이운동장,36134,경상북도 영주시 가흥동 356,가흥동 산 40-1,128.6125297,36.81744206,054-639-3813,경상북도,영주시,19970415
561,가흥1동 경찰서 뒷산(3),간이운동장,36134,경상북도 영주시 가흥동 356,가흥동 산 40-1,128.6113857,36.81808918,054-639-3813,경상북도,영주시,20210806
562,가흥1동 구 복싱장 옆 놀이터,간이운동장,36105,경상북도 영주시 가흥동 1451-17,놀이터,128.6173387,36.81622579,054-639-7956,경상북도,영주시,20090616
563,가흥1동 남부게이트볼장(1),간이운동장,750070,경북 영주시 문정동 706-8,,128.6178253,36.79717183,054-639-3813,경상북도,영주시,20190625
564,가흥1동 남부게이트볼장(2),간이운동장,750070,경북 영주시 문정동 706-8,,128.6178253,36.79717183,054-639-3813,경상북도,영주시,20190326
565,가흥1동 남부게이트볼장(3),간이운동장,,경북 영주시 문정동 706-8,,128.6178239,36.79717311,054-639-3813,경상북도,영주시,20200325
566,가흥1동 도립도서관 뒤,간이운동장,750901,경북 영주시 가흥동 25-8,도립도서관 뒤,128.6167654,36.81986645,054-639-7956,경상북도,영주시,20160526
567,가흥1동 문정회관,간이운동장,36141,경상북도 영주시 문정동 209-28,,128.6024484,36.80270683,054-639-3813,경상북도,영주시,20120119
568,가흥1동 서릿골 마을 입구,간이운동장,750070,경북 영주시 문정동 377-1,,128.6111969,36.79159266,054-639-3813,경상북도,영주시,20181108
569,가흥1동 서천시민공원,간이운동장,36124,경상북도 영주시 가흥동 1381-509 황토못메기,외정황토못메기 앞,128.6210375,36.8128561,054-639-7956,경상북도,영주시,20120627
570,가흥1동 시민운동장 입구(1),간이운동장,750020,경북 영주시 가흥동 237-1,,128.6109743,36.80834728,054-639-3813,경상북도,영주시,20040910
571,가흥1동 시민운동장 입구(2),간이운동장,750020,경북 영주시 가흥동 237-1,,128.6109743,36.80834728,054-639-3813,경상북도,영주시,20090616
572,가흥1동 시민운동장 입구(3),간이운동장,750020,경북 영주시 가흥동 237-1,,128.6109743,36.80834728,054-639-3813,경상북도,영주시,20130622
573,가흥1동 시민운동장 입구(4),간이운동장,750020,경북 영주시 가흥동 237-1,,128.6109743,36.80834728,054-639-3813,경상북도,영주시,20151125
574,가흥1동 시민운동장 입구(5),간이운동장,750020,경북 영주시 가흥동 237-1,,128.6109743,36.80834728,054-639-3813,경상북도,영주시,20190325
575,가흥1동 어린이공원,간이운동장,750020,경북 영주시 가흥동 1679,공원,128.607296,36.81785046,054-639-7956,경상북도,영주시,20190326
576,가흥1동 정자 옆,간이운동장,750020,경북 영주시 가흥동 282-9,정자 옆,128.6121803,36.81306664,054-639-7956,경상북도,영주시,20200219
577,가흥1동 제2가흥교 밑(2)(시민운동장),간이운동장,750020,경북 영주시 가흥동 265-3,,128.6124024,36.80869553,054-639-3813,경상북도,영주시,20190326
578,가흥1동 제민루(1),간이운동장,36099,경상북도 영주시 가흥동 9-8,제민루 뒷산,128.6167696,36.82092238,054-639-7956,경상북도,영주시,19950830
579,가흥1동 제민루(2),간이운동장,36099,경상북도 영주시 가흥동 9-8,제민루 뒷산,128.6167696,36.82092238,054-639-7956,경상북도,영주시,20200219
580,가흥1동 제민루(3),간이운동장,36099,경상북도 영주시 가흥동 9-8,제민루 뒷산,128.6167696,36.82092238,054-639-7956,경상북도,영주시,20200219
581,가흥1동 초등학교 주변 공원,간이운동장,750020,경북 영주시 가흥동 1951,,128.6083684,36.81276147,054-639-3813,경상북도,영주시,20190326
582,가흥1동 탁구전용 구장(2),간이운동장,36101,경상북도 영주시 가흥동 111-3,서천 뚝방,128.6161054,36.814491,054-639-7956,경상북도,영주시,20191122
583,가흥1동 탁구전용구장(1),간이운동장,36101,경상북도 영주시 가흥동 111-3,서천 뚝방,128.6161054,36.814491,054-639-7956,경상북도,영주시,20151026
584,가흥1동 한절마 뒤산(1),간이운동장,36134,경상북도 영주시 가흥동 356,한절마 뒷산,128.6114996,36.81822603,054-639-7956,경상북도,영주시,19970415
585,가흥1동 한절마 뒷산,간이운동장,36134,경상북도 영주시 가흥동 356,한절마 뒷산,128.6114996,36.81822603,054-639-7956,경상북도,영주시,20160627
586,가흥2동 10통 아지동 야영장,간이운동장,36054,경상북도 영주시 아지동 147-2,,128.6014175,36.86291526,054-639-3813,경상북도,영주시,19921226
587,가흥2동 1통 마을회관,간이운동장,36053,경상북도 영주시 고현동 260 고현1통마을회관,,128.6174032,36.84015565,054-639-3813,경상북도,영주시,20120627
588,가흥2동 3통 삼진경로당(1),간이운동장,750100,경북 영주시 창진동 373-11,,128.6009418,36.84656302,054-639-3813,경상북도,영주시,20171127
589,가흥2동 3통 삼진경로당(2),간이운동장,750100,경북 영주시 창진동 373-11,,128.6009418,36.84656302,054-639-3813,경상북도,영주시,20110408
590,가흥2동 4통 마을회관,간이운동장,36055,경상북도 영주시 창진동 187-49,,128.5990154,36.84234701,054-639-3813,경상북도,영주시,20130623
591,가흥2동 4통 반석교회 앞 쉼터,간이운동장,750100,경북 영주시 창진동 238-2,,128.5938533,36.84294614,054-639-3813,경상북도,영주시,20250522
592,가흥2동 6통 SK머티리얼즈 인근 솔밭,간이운동장,750080,경북 영주시 상줄동 680,,128.5873894,36.83090507,054-639-3813,경상북도,영주시,20200217
593,가흥2동 6통 영주자동차학원 부근,간이운동장,750080,경북 영주시 상줄동 232-3,,128.5848144,36.83343703,054-639-3813,경상북도,영주시,20220525
594,가흥2동 6통 영주자동차학원 부근(2),간이운동장,750080,경북 영주시 상줄동 232-3,,128.5848144,36.83343703,054-639-3813,경상북도,영주시,20200217
595,가흥2동 8통 경로당 앞,간이운동장,36057,경상북도 영주시 가흥동 642-7,,128.6048854,36.82991689,054-639-3813,경상북도,영주시,20110408
596,가흥2동 8통 행정복지센터 앞(2),간이운동장,750020,경북 영주시 가흥동 1381-1,,128.613143,36.82988801,054-639-3813,경상북도,영주시,20240507
597,가흥2동 8통 행정복지센터 앞(3),간이운동장,750020,경북 영주시 가흥동 1381-1,,128.613143,36.82988801,054-639-3813,경상북도,영주시,20240705
598,가흥2동 고현동 자전거 공원,간이운동장,36053,경상북도 영주시 고현동 158-8,,128.607768,36.84733719,054-639-3813,경상북도,영주시,20200325
599,가흥2동 매름마을,간이운동장,750080,경북 영주시 상줄동 444,,128.5702672,36.83484826,054-639-3813,경상북도,영주시,20170413
600,가흥2동 상고현경로당(1),간이운동장,36053,경상북도 영주시 고현동 149-7,,128.6114349,36.84591665,054-639-3813,경상북도,영주시,20180521
601,가흥2동 서늘기 정자 옆,간이운동장,,경북 영주시 창진동 8-2,,128.6027428,36.85274965,054-639-3813,경상북도,영주시,20210625
602,가흥2동 서천교 다리 밑,간이운동장,,경북 영주시 가흥동 504-1,,128.6130137,36.83162646,054-639-3813,경상북도,영주시,20210329
603,가흥2동 제일고 뒷산,간이운동장,36056,경상북도 영주시 가흥동 산2-2,황가네오리 옆 산책로,128.6073563,36.83230542,054-639-3813,경상북도,영주시,19960628
604,가흥2동 필두놀이터(1),간이운동장,36060,경상북도 영주시 상줄동 110,,128.5861297,36.8315634,054-639-3813,경상북도,영주시,20090617
605,가흥2동게이트볼클럽 게이트볼장,간이운동장,,경북 영주시 가흥동 1381-772,,128.6057765,36.83871968,054-369-3813,경상북도,영주시,20200708
606,각1리 동네체육시설,간이운동장,,충북 청주시 청원구 오창읍 각리 328-4,,127.4276032,36.6996082,043-201-8976,충청북도,청주시,19000101
607,각곡마을 쉼터,간이운동장,50245,경상남도 합천군 초계면 택리 153 각곡마을회관,,128.2400505,35.54722693,055-930-4357,경상남도,합천군,20180405
608,각골운동장,간이운동장,,경기도 안산시 상록구 본오2동,,126.874545,37.292598,031-481-1759,경기도,안산시,20161231
609,각골테니스장,테니스장,15557,경기도 안산시 상록구 본오동 728 각골체육관,,126.8751977,37.29258118,031-481-2151,경기도,안산시,19930101
610,각남면 구곡2길 11 마을체육시설,간이운동장,38321,경상북도 청도군 각남면 구곡리 96-2 구곡노인회관,,128.672572,35.63916242,054-370-2472,경상북도,청도군,20220406
611,각남면 구곡리 동네체육시설,간이운동장,714822,경북 청도군 각남면 구곡리 815-1,,128.6720459,35.64115652,054-370-2472,경상북도,청도군,20200228
612,각남면 녹명1리 쉼터 마을체육시설,간이운동장,714823,경북 청도군 각남면 녹명리 448,,128.6388119,35.62817155,054-370-2472,경상북도,청도군,20200228
613,각남면 녹명2리 마을단위 생활체육시설,간이운동장,714823,경북 청도군 각남면 녹명리 740-1,,128.6359452,35.63655536,054-370-2472,경상북도,청도군,20130311
614,각남면 녹명2리(2) 쉼터 마을체육시설,간이운동장,714823,경북 청도군 각남면 녹명리 717-5,,128.6350259,35.63824762,054-370-2472,경상북도,청도군,20190704
615,각남면 사1리(2) 마을단위 생활체육시설,간이운동장,714822,경북 청도군 각남면 사리 1378,,128.6573157,35.61918423,054-370-2472,경상북도,청도군,20130311
616,각남면 사1리(2) 마을단위 생활체육시설,간이운동장,714822,경북 청도군 각남면 사리 1377-12,,128.6540844,35.62069214,054-370-2472,경상북도,청도군,20200228
617,각남면 사2리(한송마을) 마을체육시설,간이운동장,38322,경상북도 청도군 각남면 사리 128-16,,128.6930742,35.60556956,054-370-2472,경상북도,청도군,20191005
618,각남면 예리2리 994-4 마을체육시설,간이운동장,,경북 청도군 각남면 예리리 994-4,,128.663692,35.63932048,054-370-2472,경상북도,청도군,20210325
619,각남면 예리3리 마을단위 생활체육시설,간이운동장,714821,경북 청도군 각남면 예리리 518,,128.6591041,35.64163471,054-370-2472,경상북도,청도군,20130311
620,각남면 예리3리(2) 마을체육시설,간이운동장,714821,경북 청도군 각남면 예리리 992-22,,128.6567072,35.64638621,054-370-2472,경상북도,청도군,20100101
621,각남면 예리리 930-4 마을체육시설,간이운동장,38321,경상북도 청도군 각남면 예리리 930-4 예리2리경로당,,128.661653,35.63699263,054-370-2472,경상북도,청도군,20230323
622,각남면 옥산1길 12 마을체육시설,간이운동장,38320,경상북도 청도군 각남면 옥산리 147 옥산경로회관,,128.633701,35.61461058,054-370-2472,경상북도,청도군,20220304
623,각남면 옥산1리(경로당)마을체육시설,간이운동장,38320,경상북도 청도군 각남면 옥산리 143,,128.6339918,35.61478074,054-370-2472,경상북도,청도군,20180307
624,각남면 옥산1리(오리밭) 마을체육시설,간이운동장,38320,경상북도 청도군 각남면 옥산리 685-3,,128.6247804,35.61616338,054-370-2472,경상북도,청도군,20191126
625,각남면 옥산1리(옥척)마을체육시설,간이운동장,38320,경상북도 청도군 각남면 옥산리 569,,128.6284496,35.61968248,054-370-2472,경상북도,청도군,20150612
626,각남면 옥산2리 마을체육시설,간이운동장,714822,경북 청도군 각남면 옥산리 948,,128.6232104,35.60553627,054-370-2472,경상북도,청도군,20120718
627,각남면 옥산3리 마을체육시설,간이운동장,714823,경북 청도군 각남면 녹명리 964-102,,128.6368061,35.61987561,054-370-2472,경상북도,청도군,20180307
628,각남면 일곡 동네체육시설,간이운동장,,경북 청도군 각남면 일곡리 178-2,,128.6801182,35.63926347,054-370-2472,경상북도,청도군,20031229
629,각남면 칠성1리 쉼터 마을체육시설,간이운동장,714821,경북 청도군 각남면 화리 40-2,마을쉼터,128.6824614,35.6509855,054-370-2472,경상북도,청도군,20190704
630,각남면 칠성1리 쉼터 마을체육시설,간이운동장,714821,경북 청도군 각남면 화리 40-2,,128.6824614,35.6509855,054-370-2472,경상북도,청도군,20190704
631,각남면 칠성길 144 마을체육시설,간이운동장,38321,경상북도 청도군 각남면 칠성리 942-3 칠성2리경로회관,,128.6890288,35.64116914,054-370-2472,경상북도,청도군,20220304
632,각남면 칠성리 368 마을체육시설,간이운동장,,경북 청도군 각남면 칠성리 368,,128.6832429,35.6513181,054-370-2472,경상북도,청도군,20230323
633,각남면 칠성리 368(다리아래) 마을체육시설,간이운동장,,경북 청도군 각남면 칠성리 368,,128.6832429,35.6513181,054-370-2472,경상북도,청도군,20230301
634,각남면 칠성리 72-5(뚝방길) 마을체육시설,간이운동장,38321,경상북도 청도군 각남면 칠성리 1-1,칠성리 72-5,128.6965303,35.65929511,054-370-2472,경상북도,청도군,20200626
635,각남면 하사길 65-6 마을체육시설,간이운동장,38322,경상북도 청도군 각남면 사리 1027,,128.6553202,35.62082224,054-370-2472,경상북도,청도군,20210325
636,각남면 한재로 788-3(한송마을) 마을체육시설,간이운동장,38322,경상북도 청도군 각남면 사리 128-16,,128.6931791,35.60558746,054-370-2472,경상북도,청도군,20200626
637,각남면 함박리 마을체육시설,간이운동장,714822,경북 청도군 각남면 함박리 542,,128.6390953,35.61090486,054-370-2472,경상북도,청도군,20150612
638,각남면 화리 동네체육시설,간이운동장,38321,경상북도 청도군 각남면 화리 354-1 화리경로회관,,128.6817911,35.6415507,054-370-2472,경상북도,청도군,20050101
639,각남면농어촌복합체육시설,생활체육관,38321,경상북도 청도군 각남면 예리리 396 복합체육시설,각남면복합체육시설,128.659242,35.64317921,054-370-2472,경상북도,청도군,20100716
640,각리 동네체육시설,간이운동장,28131,충청북도 청주시 청원구 오창읍 각리 59-4,,127.438235,36.70798384,043-201-8976,충청북도,청주시,20191218
641,각마을공터,간이운동장,,경기도 이천시 율면,,127.549263,37.090207,031-644-8692,경기도,이천시,20161231
642,각북면 금천리 162-7,간이운동장,,경북 청도군 각북면 금천리 162-7,,128.5795299,35.71999831,054-370-2528,경상북도,청도군,20220304
643,각북면 금천리 458-1,간이운동장,,경북 청도군 각북면 금천리 458-1,,128.573599,35.72229281,054-370-2528,경상북도,청도군,20220408
644,각북면 금천리 금천회관 마을체육시설,간이운동장,38301,경상북도 청도군 각북면 금천리 162-1 금천리경로회관,,128.5796056,35.7201288,054-370-2528,경상북도,청도군,20200228
645,각북면 금천리 송내회관 마을체육시설,간이운동장,38301,경상북도 청도군 각북면 금천리 458-1 송내리경로회관,,128.5735967,35.72229103,054-370-2528,경상북도,청도군,20200228
646,각북면 낙산3길 11 (남산3리 할머니 경로당)마을체육시설,간이운동장,38302,경상북도 청도군 각북면 남산리 1111,,128.5682069,35.69609549,054-370-2528,경상북도,청도군,20200528
647,각북면 남산1리 마을회관 마을체육시설,간이운동장,38302,경상북도 청도군 각북면 남산리 289-19 남산1리경로회관,,128.5897959,35.68860874,054-370-2528,경상북도,청도군,20190510
648,각북면 남산2길 21 마을체육시설,간이운동장,38302,경상북도 청도군 각북면 남산리 656-1 남산2리노인회관,,128.5820376,35.69314518,054-370-2528,경상북도,청도군,20210325
649,각북면 덕촌1리 마을체육시설,간이운동장,38302,경상북도 청도군 각북면 덕촌리 1143-11,,128.596913,35.69764154,054-370-2528,경상북도,청도군,20070101
650,각북면 덕촌2리 덕산초 옆 마을체육시설,간이운동장,38302,경상북도 청도군 각북면 덕촌리 553-1 덕산초등학교,,128.5834448,35.70550827,054-370-2528,경상북도,청도군,20200228
651,각북면 덕촌2리 마을체육시설,간이운동장,714841,경북 청도군 각북면 덕촌리 1143-1,,128.5810638,35.70623528,054-370-2528,경상북도,청도군,19981221
652,각북면 덕촌2리 마을회관 마을체육시설,간이운동장,38300,경상북도 청도군 각북면 덕촌리 769 덕촌2리경로회관,,128.5830393,35.7071285,054-370-2528,경상북도,청도군,20200228
653,각북면 덕촌리 1143-122,간이운동장,38302,경상북도 청도군 각북면 덕촌리 1143-122 덕촌1리경로당,,128.5965327,35.69727747,054-370-2528,경상북도,청도군,20220304
654,각북면 명대1길 180,간이운동장,38304,경상북도 청도군 각북면 명대리 123-1 명대1리동회관,,128.6163356,35.65810337,054-370-2528,경상북도,청도군,20210325
655,각북면 명대길 73 (명리 2길 마을회관)마을체육시설,간이운동장,38304,경상북도 청도군 각북면 명대리 570-3 명대2리경로회관,,128.6272267,35.64594318,054-370-2528,경상북도,청도군,20200528
656,각북면 삼평1리 마을체육시설,간이운동장,38303,경상북도 청도군 각북면 삼평리 143-4,,128.5947599,35.67783358,054-370-2528,경상북도,청도군,20180531
657,각북면 삼평2리  율정공원(2) 마을체육시설,간이운동장,714841,경북 청도군 각북면 삼평리 749,,128.5996037,35.66375431,054-370-2528,경상북도,청도군,20170829
658,각북면 삼평2리 마을회관 마을체육시설,간이운동장,38303,경상북도 청도군 각북면 삼평리 786-1 삼평2동회관,,128.6006965,35.6660576,054-370-2528,경상북도,청도군,20190510
659,각북면 삼평2리 율정공원(1) 마을체육시설,간이운동장,714841,경북 청도군 각북면 삼평리 749,,128.5996037,35.66375431,054-370-2528,경상북도,청도군,20010119
660,각북면 삼평4길 27,간이운동장,38303,경상북도 청도군 각북면 삼평리 143-4,,128.5947426,35.67796709,054-370-2528,경상북도,청도군,20230323
661,각북면 오산1리 마을체육시설,간이운동장,38300,경상북도 청도군 각북면 오산리 1273-15 오산1리경로당,,128.5764937,35.70935921,054-370-2528,경상북도,청도군,19990101
662,각북면 오산2리 마을체육시설,간이운동장,38300,경상북도 청도군 각북면 오산리 1005-3 오산2리경로회관,,128.5605755,35.71563708,054-370-2528,경상북도,청도군,19990101
663,각북면 우산리 마을체육시설,간이운동장,714842,경북 청도군 각북면 우산리 215-6,,128.6091058,35.65873253,054-370-2528,경상북도,청도군,20170829
664,각북면 지슬1리(버스회차장) 마을체육시설,간이운동장,38301,경상북도 청도군 각북면 지슬리 1200,,128.593875,35.72061467,054-370-2528,경상북도,청도군,19990101
665,각북면 지슬1리(지슬쉼터) 마을체육시설,간이운동장,714841,경북 청도군 각북면 지슬리 959,,128.590372,35.71672835,054-370-2528,경상북도,청도군,20160418
666,각북면 지슬2리 마을체육시설,간이운동장,38301,경상북도 청도군 각북면 지슬리 688-2 지슬2리경로회관,,128.5952097,35.71750059,054-370-2528,경상북도,청도군,20200228
667,각북면 지슬리 688-2 마을체육시설,간이운동장,38301,경상북도 청도군 각북면 지슬리 688-2 지슬2리경로회관,,128.595198,35.71754328,054-370-2528,경상북도,청도군,20230323
668,각화1교하부체육공간족구장,간이운동장,61136,광주광역시 북구 각화동  503-46,광주 북구 각화동 46-1(각화1교하부),126.9295873,35.18179232,062-410-6143,광주광역시,북구,20131225
669,각화1교하부체육공간풋살장,간이운동장,61136,광주광역시 북구 각화동  503-46,광주 북구 각화동 46-1,126.9397961,35.18503279,062-410-6143,광주광역시,북구,20131225
670,각화금호타운,간이운동장,,광주광역시 북구 문화동,,126.934966,35.183169,062-510-1267,광주광역시,북구,20161231
671,각화금호타운,간이운동장,,광주광역시 북구 문화동,,126.934106,35.182312,062-510-1267,광주광역시,북구,20161231
672,각화주공아파트,간이운동장,,광주광역시 북구 문화동,,126.935469,35.179629,062-510-1267,광주광역시,북구,20161231
673,간동탁구장,기타시설,24133,강원특별자치도 화천군 간동면 용호리 1217-3 용호리 경로당,,127.7813016,38.06361977,033-440-4550,강원특별자치도,화천군,20200530
674,간상2리 댓골 동네체육시설,간이운동장,37246,경상북도 상주시 중동면 간상리 899-2,,128.2823528,36.41779045,054-537-8082,경상북도,상주시,19000101
675,간성보조구장,축구장,24728,강원특별자치도 고성군 간성읍 상리 500,,128.4653216,38.37630042,033-680-3712,강원특별자치도,고성군,20080403
676,간성생활체육공원,간이운동장,,강원특별자치도 고성군 간성읍,,128.462494,38.376588,033-680-3716,강원특별자치도,고성군,20161231
677,간성읍전천후게이트볼장,전천후게이트볼장,24728,강원특별자치도 고성군 간성읍 상리 500,간성읍전천후게이트볼장,128.4653216,38.37630042,033-680-3712,강원특별자치도,고성군,20000710
678,간성테니스장,테니스장,24728,강원특별자치도 고성군 간성읍 상리 439-1 종합운동장,,128.4635968,38.37566258,033-680-3714,강원특별자치도,고성군,20080520
679,간송2리 할미성 경로당 운동기구,간이운동장,36901,경상북도 문경시 동로면 간송리 213-8,,128.3215028,36.75538467,054-550-8710,경상북도,문경시,20200504
680,간이운동시설,간이운동장,55918,전라북도 임실군 성수면 양지리 194 전천후게이트볼장,,127.3374565,35.62744595,063-640-4152,전북특별자치도,임실군,19990101
681,간이운동장(음식물처리장),간이운동장,,서울특별시 도봉구 도봉1동,,127.044658,37.690759,02-2091-3263,서울특별시,도봉구,20161231
682,간이체육시설,간이운동장,,충청남도 서산시 인지면,,126.420848,36.755645,041-660-3197,충청남도,서산시,20161231
683,간이체육시설,간이운동장,,충청남도 서산시 수석동,,126.462883,36.772432,02-660-2083,충청남도,서산시,20161231
684,간이체육시설,간이운동장,,충청남도 서산시 인지면,,126.428647,36.758089,041-660-3197,충청남도,서산시,20161231
685,간이체육시설,간이운동장,,충청남도 서산시 지곡면,,126.445108,36.842104,02-660-2083,충청남도,서산시,20161231
686,간이체육시설,간이운동장,,충청남도 서산시 팔봉면,,126.345226,36.806805,02-660-3443,충청남도,서산시,20161231
687,간이체육시설,간이운동장,,충청남도 서산시 음암면,,126.524018,36.785208,041-660-3197,충청남도,서산시,20161231
688,간이체육시설,간이운동장,,충청남도 서산시 음암면,,126.507173,36.788304,041-660-3197,충청남도,서산시,20161231
689,간이체육시설,간이운동장,,충청남도 서산시 대산읍,,126.426183,36.948941,041-660-3197,충청남도,서산시,20161231
690,간이체육시설,간이운동장,,충청남도 서산시 인지면,,126.421749,36.756524,041-660-3197,충청남도,서산시,20161231
691,간이체육시설,간이운동장,,충청남도 서산시 인지면,,126.397463,36.777453,041-660-3197,충청남도,서산시,20161231
692,간이체육시설,간이운동장,,충청남도 서산시 수석동,,126.46085,36.773179,02-660-2083,충청남도,서산시,20161231
693,간이체육시설,간이운동장,,충청남도 서산시 석남동,,126.446214,36.74625,02-660-2083,충청남도,서산시,20161231
694,간이체육시설,간이운동장,,충청남도 서산시 석남동,,126.438095,36.775471,02-660-2083,충청남도,서산시,20161231
695,간이체육시설,간이운동장,,충청남도 서산시 석남동,,126.43774,36.774974,02-660-2083,충청남도,서산시,20161231
696,간이체육시설,간이운동장,,충청남도 서산시 인지면,,126.42057,36.755491,041-660-3197,충청남도,서산시,20161231
697,간이체육시설,간이운동장,,충청남도 서천군 장항읍,,126.68759,36.014318,041-950-4748,충청남도,서천군,20161231
698,간이체육시설,간이운동장,,충청남도 서천군 장항읍,,126.665737,36.019563,041-950-4748,충청남도,서천군,20161231
699,간이체육시설,간이운동장,,충청남도 서천군 화양면,,126.78164,36.036665,041-950-4748,충청남도,서천군,20161231
700,간이체육시설,간이운동장,,충청남도 서산시 수석동,,126.462849,36.772468,02-660-2083,충청남도,서산시,20161231
701,간이체육시설,간이운동장,,충청남도 서산시 음암면,,126.530099,36.816744,041-660-3197,충청남도,서산시,20161231
702,간이체육시설,간이운동장,,충청남도 서산시 음암면,,126.507254,36.789276,02-660-2083,충청남도,서산시,20161231
703,간이체육시설,간이운동장,,충청남도 서산시 음암면,,126.47582,36.807029,041-660-3197,충청남도,서산시,20161231
704,간이체육시설,간이운동장,,충청남도 서산시 동문1동,,126.460997,36.794102,041-660-3608,충청남도,서산시,20161231
705,간이체육시설,간이운동장,,충청남도 서산시 대산읍,,126.41693,36.971026,041-660-3197,충청남도,서산시,20161231
706,간이체육시설,간이운동장,,충청남도 서산시 대산읍,,126.378056,36.95111,041-660-3197,충청남도,서산시,20161231
707,간이체육시설,간이운동장,,충청남도 서산시 운산면,,126.566271,36.811718,02-660-2083,충청남도,서산시,20161231
708,간이체육시설,간이운동장,,충청남도 서산시 수석동,,126.460874,36.776135,02-660-2083,충청남도,서산시,20161231
709,간절곶스포츠파크운동장,육상경기장,45013,울산광역시 울주군 서생면 서생리 산14-1 간절곶스포츠파크,,129.3364782,35.37130812,052-229-9800,울산광역시,울주군,20070412
710,간창골 우물 쉼터 체력단련시설,간이운동장,53060,경상남도 통영시 문화동 230 통영문화원,,128.421897,34.84686893,055-650-4723,경상남도,통영시,20181206
711,간척게이트볼장,전천후게이트볼장,24139,강원특별자치도 화천군 간동면 간척리 1068-1 게이트볼장,,127.819525,38.03793753,033-440-2257,강원특별자치도,화천군,19000101
712,간척전천후게이트볼장,전천후게이트볼장,24139,강원특별자치도 화천군 간동면 간척리 1068-1 게이트볼장,,127.819525,38.03793753,033-440-2257,강원특별자치도,화천군,20150621
713,간평경로당,간이운동장,36756,경상북도 안동시 일직면 국곡리 739-6,,128.5974405,36.48974762,054-840-4261,경상북도,안동시,20190523
714,갈곡리 마을회관,간이운동장,38036,경상북도 경주시 천북면 갈곡리 275 갈곡리마을회관,,129.2835398,35.88773644,054-779-8302,경상북도,경주시,20140101
715,갈곶어린이공원,간이운동장,,경기도 오산시 대원동,갈곶동 108,127.06649,37.134345,031-8036-7648,경기도,오산시,20161009
716,갈곶제1근린공원,간이운동장,,경기도 오산시 대원동,갈곶동 290-6,127.074876,37.129528,031-8036-7648,경기도,오산시,20161009
717,갈곶제1소공원,간이운동장,,경기도 오산시 대원동,갈곶동 174,127.067213,37.130346,031-8036-7648,경기도,오산시,20161009
718,갈대밭어린이공원,간이운동장,,서울특별시 도봉구 도봉2동,,127.045398,37.674143,02-2091-3756,서울특별시,도봉구,20161231
719,갈동마을 소규모 체육시설,간이운동장,27448,충청북도 충주시 중앙탑면 용전리 218-5,,127.8466778,37.02110458,043-850-2372,충청북도,충주시,19990101
720,갈라산 등산로,간이운동장,760861,경북 안동시 남선면 도로리 산 104,,128.7544156,36.48678173,054-840-4361,경상북도,안동시,20000101
721,갈마공원,간이운동장,,인천광역시 서구 연희동,,126.673635,37.546661,033-560-4800,인천광역시,서구,20161231
722,갈마마을 소규모 체육시설,간이운동장,,충북 충주시 중앙탑면 창동리 127-4,,127.8851455,36.98150304,043-850-2372,충청북도,충주시,19990101
723,갈마마을 체육시설,간이운동장,380922,충북 충주시 중앙탑면 창동리 127-4,,127.8851473,36.98150285,043-850-6621,충청북도,충주시,20180223
724,갈마봉근린공원,간이운동장,34076,대전광역시 유성구 지족동 837 갈마봉 근린공원 게이트볼장,,127.317424,36.384026,042-6112-038,대전광역시,유성구,20161231
725,갈마봉근린공원전천후게이트볼장,전천후게이트볼장,34076,대전광역시 유성구 지족동 837 갈마봉 근린공원 게이트볼장,,127.3180413,36.38443565,042-611-2943,대전광역시,유성구,20161231
726,갈마산 등산로,간이운동장,,충청남도 부여군 장암면,,126.895205,36.239978,041-830-2172,충청남도,부여군,20161231
727,갈마산등산로,간이운동장,,경상남도 합천군 용주면,,128.144435,35.556042,055-930-4171,경상남도,합천군,20161231
728,갈마아파트체육시설,간이운동장,,대전광역시 서구 갈마1동,,127.367583,36.34205,042-524-3540,대전광역시,서구,20161231
729,갈말게이트볼장,전천후게이트볼장,24032,강원특별자치도 철원군 갈말읍 군탄리 1341 철원실내체육관,,127.3032093,38.16132322,033-450-5291,강원특별자치도,철원군,20170526
730,갈말동네체육시설,간이운동장,,강원특별자치도 철원군 갈말읍,,127.30254,38.160001,033-450-4730,강원특별자치도,철원군,20161231
731,갈말탁구장,구기체육관,24034,강원특별자치도 철원군 갈말읍 군탄리 337-8,,127.3104856,38.14974743,033-450-5291,강원특별자치도,철원군,20140428
732,갈매1리(갈매1리 마을회관),간이운동장,31497,충청남도 아산시 배방읍 갈매리 156-3 갈매1리마을회관,마을회관 옆,127.0856033,36.76328225,041-537-3054,충청남도,아산시,20250618
733,갈매멀티스포츠센터,생활체육관,11902,경기도 구리시 갈매동 645 갈매멀티스포츠센터,,127.1168337,37.62992452,031-579-4032,경기도,구리시,20230713
734,갈매멀티스포츠센터 수영장,수영장,11902,경기도 구리시 갈매동 645 갈매멀티스포츠센터,,127.1168337,37.62992452,031-579-4020,경기도,구리시,20230707
735,갈매배수지,간이운동장,31497,충청남도 아산시 배방읍 갈매리 173-2,갈매배수지,127.0858488,36.76129069,041-536-8638,충청남도,아산시,20110501
736,갈면리 갈면보건소 앞,간이운동장,36344,경상북도 울진군 매화면 갈면리 462 갈면보건진료소,,129.3460642,36.86446475,054-789-4521,경상북도,울진군,19000101
737,갈목 체력단련시설,간이운동장,,경남 통영시 인평동 산 13-1,,128.3740973,34.8489002,055-650-4723,경상남도,통영시,20181204
738,갈미중앙공원 게이트볼장,기타시설,16041,경기도 의왕시 내손동 781,,126.9739836,37.37679161,031-345-2544,경기도,의왕시,20020501
739,갈산 오두리 체육공원,간이운동장,,충청남도 홍성군 갈산면,,126.518442,36.601646,041-630-1636,충청남도,홍성군,20161231
740,갈산1리 공원,간이운동장,755871,경북 봉화군 재산면 갈산리 1865-19,,128.9722237,36.8345596,054-679-5713,경상북도,봉화군,20130101
741,갈산1리 마을회관,간이운동장,36260,경상북도 봉화군 재산면 갈산리 1838-1 갈산1리마을회관,,128.9724182,36.83968461,054-679-5713,경상북도,봉화군,20070101
742,갈산2리 마을회관,간이운동장,36260,경상북도 봉화군 재산면 갈산리 197-3 갈산2리회관,,129.0445072,36.84529544,054-679-5713,경상북도,봉화군,20120101
743,갈산공원,간이운동장,21316,인천광역시 부평구 갈산동 166-14 부평구 다목적 실내체육관,130-1일원,126.7228618,37.51865341,032-509-6973,인천광역시,부평구,20080101
744,갈산동 청소년농구장,간이운동장,21333,인천광역시 부평구 갈산동 178-1 부평관광호텔컨벤션센타,,126.7224876,37.51584592,032-5096-445,인천광역시,부평구,20000801
745,갈산리 간이체육시설,간이운동장,,충청남도 서산시 운산면,,126.579481,36.799988,041-660-3524,충청남도,서산시,20161231
746,갈오현공원,간이운동장,,경기도 가평군,,127.5095702,37.83144131,031-580-2147,경기도,가평군,20171128
747,갈운2리 게이트볼장,전천후게이트볼장,12532,경기도 양평군 청운면 갈운리 478-1,,127.7669977,37.54162901,031-770-3225,경기도,양평군,19990101
748,갈원1리 동네체육시설,간이운동장,28184,충청북도 청주시 서원구 남이면 갈원리 37-5,,127.3950108,36.5718697,043-201-6504,충청북도,청주시,20180213
749,갈월종합사회복지관체육관,생활체육관,4335,서울특별시 용산구 갈월동 51-19 남영동 주민센터,갈월종합사회복지관,126.9748244,37.54577435,02-752-7887,서울특별시,용산구,20010731
750,갈전 동네체육시설,간이운동장,,경상남도 진주시 금산면,,128.15683,35.184591,061-380-2809,경상남도,진주시,20161231
751,갈전1리 마을 체육시설,간이운동장,36760,경상북도 안동시 풍천면 가곡리 940,1133-1,128.5216072,36.56197499,054-840-4211,경상북도,안동시,20240513
752,갈전1리 쉼터 소공원,간이운동장,36734,경상북도 안동시 임동면 갈전리 542,,128.9726373,36.57709062,054-840-4513,경상북도,안동시,20160101
753,갈전2리 경로당,간이운동장,36734,경상북도 안동시 임동면 갈전리 439 갈전2리경로당,,128.9641192,36.57039729,054-840-4511,경상북도,안동시,20240508
754,갈전마을회관,간이운동장,,전남 장성군 서삼면 용흥리 690-8,갈전마을회관,126.7505527,35.32726815,061-390-8506,전라남도,장성군,19000101
755,갈지리 회관,간이운동장,38573,경상북도 경산시 남산면 갈지리 107,,128.842294,35.77625608,053-804-7574,경상북도,경산시,20220407
756,갈천리 소공원,간이운동장,,강원특별자치도 양양군 서면,,128.506876,37.907121,033-670-2623,강원특별자치도,양양군,20161231
757,갈천마을등산로,간이운동장,,경기도 용인시 기흥구 상하동,,127.147282,37.266146,031-324-6371,경기도,용인시,20161231
758,갈평1리 야외 운동기구,간이운동장,36911,경상북도 문경시 문경읍 갈평리 564-1,,128.1587444,36.78847132,054-550-8515,경상북도,문경시,19990101
759,갈평리 마을회관 체육시설,간이운동장,37894,경상북도 포항시 남구 오천읍 갈평리 139,,129.4025303,35.91968792,054-270-2804,경상북도,포항시,19000101
760,갈현근린공원,간이운동장,,서울특별시 은평구 진관동,,126.93682,37.637791,02-351-8007,서울특별시,은평구,20161231
761,갈현리 간이체육시설,간이운동장,,충청남도 서산시 성연면,,126.479925,36.827925,041-660-3197,충청남도,서산시,20161231
762,갈현체육공원 야구장,야구장,21002,인천광역시 계양구 갈현동 산52-9 갈현체육공원,,126.7291945,37.57650737,032-450-5921,인천광역시,계양구,19000101
763,감계복지센터,수영장,51112,경상남도 창원시 의창구 북면 감계리 237-3,,128.595083,35.30047462,055-712-0683,경상남도,창원시,20191018
764,감곡 전천후게이트볼장,전천후게이트볼장,27611,충청북도 음성군 감곡면 오향리 1188,감곡 전천후게이트볼장,127.6486066,37.10632999,043-871-5919,충청북도,음성군,19000101
765,감곡리 마을회관 체육시설,간이운동장,37508,경상북도 포항시 북구 죽장면 감곡리 328-1,감곡리 마을회관,129.1219007,36.14464844,054-270-2805,경상북도,포항시,19000101
766,감곡마을 운동기구,간이운동장,52108,경상남도 의령군 낙서면 내제리 55 감곡마을회관,,128.3972035,35.49949488,055-570-2422,경상남도,의령군,20110101
767,감곡면 체력단련시설,간이운동장,,전라북도 정읍시 감곡면,,126.920475,35.714423,063-539-5443,전북특별자치도,정읍시,20161231
768,감곡면 체력단련시설,간이운동장,,전라북도 정읍시 감곡면,,126.928221,35.715654,063-539-5443,전북특별자치도,정읍시,20161231
769,감곡면 체력단련시설,간이운동장,,전라북도 정읍시 감곡면,,126.931169,35.714082,063-539-5443,전북특별자치도,정읍시,20161231
770,감곡생활체육공원,풋살장,27611,충청북도 음성군 감곡면 오향리 1188,,127.6486066,37.10632999,043-871-2484,충청북도,음성군,20171201
771,감곡생활체육공원 야구장,야구장,27611,충청북도 음성군 감곡면 오향리 1188,감곡생활체육공원,127.6486066,37.10632999,043-871-5919,충청북도,음성군,20170901
772,감곡생활체육공원 축구장,축구장,27611,충청북도 음성군 감곡면 오향리 1188,감곡생활체육공원,127.6486066,37.10632999,043-871-5919,충청북도,음성군,20170901
773,감곡생활체육공원 테니스장,테니스장,27611,충청북도 음성군 감곡면 오향리 1188,감곡생활체육공원,127.6486066,37.10632999,043-871-5919,충청북도,음성군,20170901
774,감골생활체육공원 다목적구장,풋살장,,전북특별자치도 정읍시 감곡면 방교리 612-2,,126.9279939,35.71478155,063-539-5445,전북특별자치도,정읍시,20160101
775,감골시민홀체육관,구기체육관,426824,경기 안산시 상록구 사동 1342,,126.8559399,37.29337898,031-417-5013,경기도,안산시,20010731
776,감골운동장,간이운동장,,경기도 안산시 상록구 사1동,,126.855367,37.293367,031-481-1759,경기도,안산시,20161231
777,감나무골 경로당 앞,간이운동장,36655,경상북도 안동시 태화동 160-2,,128.7110373,36.5677199,054-840-4841,경상북도,안동시,20221001
778,감나무골체육소공원,간이운동장,,울산광역시 동구 남목1동,,129.424236,35.546883,052-209-3754,울산광역시,동구,20161231
779,감나무실근린공원 동네체육시설,간이운동장,,충청북도 청주시 흥덕구 가경동 1692,,127.4375944,36.61781232,043-201-4433,충청북도,청주시,20170426
780,감나무쌈지공원동네체육시설,간이운동장,41815,대구광역시 서구 비산동 338-7,,128.569,35.87161866,053-663-2173,대구광역시,서구,19990101
781,감도1리 마을회관 주민생활체육시설,간이운동장,58141,전라남도 화순군 화순읍 감도리 205-1,,126.9806421,35.03461074,061-379-3401,전라남도,화순군,20170731
782,감도2리 마을회관 주민생활체육시설,간이운동장,58141,전라남도 화순군 화순읍 감도리 289-2,,126.9751122,35.03979491,061-379-5012,전라남도,화순군,20171201
783,감도3리 주민생활체육시설,간이운동장,58141,전라남도 화순군 화순읍 감도리 620 백련동마을회관,,126.9740632,35.03199191,061-379-5012,전라남도,화순군,20180630
784,감만2동사 뒤,간이운동장,,부산 남구 감만동 26-13,,129.0847808,35.12227886,051-607-4372,부산광역시,남구,19000101
785,감만배수지 상부 체육시설,간이운동장,,부산 남구 감만동 산 16-4,,129.0882357,35.11901456,051-607-4375,부산광역시,남구,20121008
786,감만복지관,간이운동장,48543,부산광역시 남구 감만동  78,,129.0813296,35.1184449,051-607-4372,부산광역시,남구,19000101
787,감문2리 주민쉼터 체육시설,간이운동장,711821,대구 달성군 하빈면 감문리 835-3,,128.426322,35.88444787,053-668-5611,대구광역시,달성군,20171001
788,감문면 태촌리 496-1(태촌2리),간이운동장,39511,경상북도 김천시 감문면 태촌리 496-1,,128.2237644,36.2026463,054-420-7924,경상북도,김천시,20230301
789,감산1리 마을회관,간이운동장,38185,경상북도 경주시 산내면 감산리 978-1 감산복지회관,,129.054497,35.7902901,054-779-8213,경상북도,경주시,20180101
790,감산리 게이트볼장,간이운동장,,제주특별자치도 서귀포시 안덕면,,126.354357,33.25833,064-760-4315,제주특별자치도,서귀포시,20161231
791,감산리 체육공원,간이운동장,,제주특별자치도 서귀포시 안덕면 감산리 348,감산리마을운동장,126.3545821,33.25833859,064-760-4315,제주특별자치도,서귀포시,19000101
792,감삼못공원 동네체육시설,간이운동장,41856,대구광역시 서구 내당동  463-7,,128.5521819,35.85864436,053-663-2173,대구광역시,서구,20161220
793,감암2리게이트볼장,전천후게이트볼장,487812,경기 포천시 가산면 감암리 116-5,,127.189918,37.85927853,031-538-2105,경기도,포천시,20161231
794,감암마을 운동기구(감암게이트볼장),간이운동장,,경상남도 의령군 부림면,,128.343215,35.486598,055-570-4723,경상남도,의령군,19990101
795,감암마을 운동기구(감암마을회관),간이운동장,52107,경상남도 의령군 부림면 감암리 1052 게이트볼장,,128.322999,35.47110745,055-570-4726,경상남도,의령군,19990101
796,감암마을 운동기구(부림간이실내체육관),간이운동장,52107,경상남도 의령군 부림면 감암리 1267,,128.3217012,35.47133454,055-570-4724,경상남도,의령군,19990101
797,감애1리 명계경로당,간이운동장,,경북 안동시 와룡면 감애리 836-1,,128.758184,36.65528033,054-840-4061,경상북도,안동시,19000101
798,감일근린공원 3호 농구장,기타시설,,경기 하남시 감이동 14,농구장,127.1679672,37.50810547,031-790-6144,경기도,하남시,20251231
799,감일근린공원 3호 족구장,기타시설,,경기 하남시 감이동 14,,127.1679672,37.50810547,031-790-6144,경기도,하남시,20251231
800,감일근린공원 3호 축구장,축구장,,경기 하남시 감이동 14,축구장,127.1679672,37.50810547,031-790-6144,경기도,하남시,20251231
801,감일근린공원 3호 풋살장,풋살장,,경기 하남시 감이동 14,풋살장,127.1679672,37.50810547,031-790-6144,경기도,하남시,20251231
802,감일수변공원 1호 게이트볼장,전천후게이트볼장,,경기 하남시 감일동 300-8,게이트볼장,127.1500601,37.50896859,031-790-6144,경기도,하남시,20251231
803,감일수변공원 1호 농구장,기타시설,,경기 하남시 감일동 300-8,농구장,127.1500601,37.50896859,031-790-6144,경기도,하남시,20251231
804,감일수변공원 1호 육상트랙,기타시설,,경기 하남시 감일동 300-8,육상트랙,127.1500601,37.50896859,031-790-6144,경기도,하남시,20251231
805,감일수변공원 1호 족구장,기타시설,,경기 하남시 감일동 300-8,족구장,127.1500601,37.50896859,031-790-6144,경기도,하남시,20251231
806,감일수변공원 1호 풋살장,풋살장,,경기 하남시 감일동 300-8,풋살장,127.1500601,37.50896859,031-790-6144,경기도,하남시,20251231
807,감일수변공원 2호 게이트볼장,전천후게이트볼장,,경기 하남시 감일동 123-1,게이트볼장,127.1580696,37.51310573,031-790-6144,경기도,하남시,20251231
808,감일수변공원 2호 족구장,기타시설,,경기 하남시 감일동 104-1,족구장,127.1595187,37.51338823,031-790-6144,경기도,하남시,20251231
809,감일수변공원 2호 테니스장,테니스장,,경기 하남시 감일동 104-1,테니스장,127.1595187,37.51338823,031-790-6144,경기도,하남시,20251231
810,감일수변공원 2호 풋살장,풋살장,,경기 하남시 감일동 123-1,풋살장,127.1580696,37.51310573,031-790-6144,경기도,하남시,20251231
811,감전동 쌈지공원 체육시설,간이운동장,617804,부산 사상구 감전동 601-3,감전동주민센터 옆,128.9794283,35.15480465,051-310-4124,부산광역시,사상구,20161009
812,감전약수터 체육시설,간이운동장,46982,부산광역시 사상구 감전동 104-52 대성미술학원,감전동 산192,128.994496,35.160112,051-310-4124,부산광역시,사상구,20161009
813,감전양지약수터 체육시설,간이운동장,46992,부산광역시 사상구 감전동 41-1,감전동 산1-1,128.993078,35.159568,051-310-4124,부산광역시,사상구,20161009
814,감전초등학교 체육시설,간이운동장,46984,부산광역시 사상구 감전동 119-6 감전초등학교,,128.9882742,35.15578442,051-310-4124,부산광역시,사상구,20161009
815,감지해변산책로체육공원,간이운동장,,부산광역시 영도구 동삼2동,,129.071534,35.060655,051-419-4381,부산광역시,영도구,20161231
816,감천1동옥녀봉체육시설,간이운동장,,부산광역시 사하구 감천1동 산45-1,,129.0022158,35.09240743,051-220-4122,부산광역시,사하구,20170302
817,감천1리 동네체육시설,간이운동장,36533,경상북도 영양군 영양읍 감천리 826-11 감천경로당,마을회관,129.0888149,36.63312228,054-680-6451,경상북도,영양군,20180206
818,감천2동천마산약수터,간이운동장,,부산광역시 사하구 감천2동 산99-1,,129.0122976,35.09200977,051-220-4122,부산광역시,사하구,20170302
819,감천2동천마산체육시설,간이운동장,,부산광역시 사하구 감천2동 산99-1,,129.0122976,35.09200977,051-220-4122,부산광역시,사하구,20170302
820,감천게이트볼장,기타시설,36810,경상북도 예천군 감천면 포리 357-1,,128.5272519,36.72309863,054-650-6428,경상북도,예천군,20200101
821,감천게이트볼장,기타시설,36810,경상북도 예천군 감천면 포리 434-2,,128.5256892,36.71873308,054-650-6427,경상북도,예천군,20250523
822,감천면 관현1리경로당,간이운동장,36811,경상북도 예천군 감천면 관현리 227-4 관현1리마을회관,,128.4944055,36.72002962,054-650-6415,경상북도,예천군,20170601
823,감천면 대맥1리경로당,간이운동장,36809,경상북도 예천군 감천면 대맥리 559-1 대맥1리회관,,128.5402933,36.72736281,054-650-6415,경상북도,예천군,20170601
824,감천면 덕율1리 경로당,간이운동장,36811,경상북도 예천군 감천면 덕율리 507-6 덕율1리노인회관,,128.498201,36.71052822,054-650-8521,경상북도,예천군,20170601
825,감천면 덕율2리 문화마을 내,간이운동장,757911,경북 예천군 감천면 덕율리 609-45,,128.5017664,36.7012062,054-650-8521,경상북도,예천군,20200205
826,감천면 덕율3리 경로당,간이운동장,36811,경상북도 예천군 감천면 덕율리 385-1 덕율3리노인회관,,128.5050575,36.71205997,054-650-6415,경상북도,예천군,20170601
827,감천면 돈산경로당,간이운동장,36808,경상북도 예천군 감천면 돈산리 249-1,,128.5356882,36.75960346,054-650-6415,경상북도,예천군,20180901
828,감천면 마촌리경로당,간이운동장,36810,경상북도 예천군 감천면 마촌리 84-1 마촌리마을회관,,128.5312924,36.69685104,054-650-6415,경상북도,예천군,20180901
829,감천면 말골경로당,간이운동장,36810,경상북도 예천군 감천면 장산리 490 장산2리노인회관,,128.5387833,36.70509081,054-650-6415,경상북도,예천군,20190501
830,감천면 미석2리마을회관,간이운동장,36809,경상북도 예천군 감천면 미석리 794 미석2리마을회관,,128.5624194,36.75182733,054-650-6415,경상북도,예천군,20171101
831,감천면 미석3리 경로당,간이운동장,36809,경상북도 예천군 감천면 미석리 38,,128.5754248,36.7314044,054-650-6415,경상북도,예천군,20180601
832,감천면 미석3리 마을,간이운동장,36809,경상북도 예천군 감천면 미석리 472-4,,128.5633944,36.73454007,054-650-6415,경상북도,예천군,20180601
833,감천면 벌방1리 경로당,간이운동장,36807,경상북도 예천군 감천면 벌방리 281-2 벌방리노인복지회관,,128.4998779,36.75853221,054-650-6415,경상북도,예천군,20170601
834,감천면 수한리 공동마당,간이운동장,36807,경상북도 예천군 감천면 수한리 162,,128.4883094,36.76833657,054-650-8521,경상북도,예천군,20190101
835,감천면 예천박물관,간이운동장,36810,경상북도 예천군 감천면 포리 688 예천박물관,,128.5142661,36.70021888,054-650-8314,경상북도,예천군,20091201
836,감천면 유1리 마을회관,간이운동장,36809,경상북도 예천군 감천면 유리 390-11 유1리마을회관,,128.5469841,36.76023198,054-650-6415,경상북도,예천군,20170601
837,감천면 유동장어 앞 공원,간이운동장,36809,경상북도 예천군 감천면 유리 125 유동장어구이,,128.5553521,36.75627369,054-650-6415,경상북도,예천군,20180601
838,감천면 유리 남산대,간이운동장,36809,경상북도 예천군 감천면 유리 703-3,,128.5563617,36.75657575,054-650-8521,경상북도,예천군,20200305
839,감천면 장산1리경로당 주차장,간이운동장,36810,경상북도 예천군 감천면 장산리 581 장산1리마을회관,,128.5321308,36.71608634,054-650-6415,경상북도,예천군,20180501
840,감천면 장산2리 마을회관,간이운동장,36810,경상북도 예천군 감천면 장산리 382,,128.5356887,36.69916233,054-650-6415,경상북도,예천군,20180601
841,감천면 증거리 마을입구,간이운동장,757913,경북 예천군 감천면 증거리 32-4,,128.5204173,36.73958052,054-650-8521,경상북도,예천군,20200219
842,감천면 진평1리 경로당,간이운동장,36807,경상북도 예천군 감천면 진평리 352-5,,128.4999362,36.74036667,054-650-6415,경상북도,예천군,20180601
843,감천면 포2리 마을회관,간이운동장,36810,경상북도 예천군 감천면 포리 877-1 포2리마을회관,포2리 마을회관,128.5197609,36.71241735,054-650-6415,경상북도,예천군,20160606
844,감천면 포리보건지소,간이운동장,36810,경상북도 예천군 감천면 포리 350-1,,128.5285403,36.72307767,054-650-6645,경상북도,예천군,20200205
845,감투봉 약수터,간이운동장,,경기도 군포시 오금동,산본동 739,126.92809,37.342803,031-390-0731,경기도,군포시,20161009
846,감포 축구장 및 게이트볼장 옆,간이운동장,,경북 경주시 감포읍 전동리 224,,129.4925638,35.80232989,054-779-8003,경상북도,경주시,20150918
847,감포3리 마을공터,간이운동장,,경북 경주시 감포읍 감포리 50-5,,129.5027163,35.80770526,054-779-8003,경상북도,경주시,20170918
848,감포5리 마을공터,간이운동장,780831,경북 경주시 감포읍 감포리 50-5,,129.5027168,35.80770588,054-779-8003,경상북도,경주시,20170101
849,감포게이트볼장,전천후게이트볼장,780834,경북 경주시 감포읍 전동리 224,,129.492563,35.80233081,054-779-8003,경상북도,경주시,20130101
850,감포공설시장 주차장,간이운동장,38125,경상북도 경주시 감포읍 감포리 436-1,,129.5020144,35.80411024,054-779-8004,경상북도,경주시,20211206
851,감포읍복지회관 주차장,간이운동장,38125,경상북도 경주시 감포읍 전촌리 221,,129.4931248,35.79908117,054-779-8003,경상북도,경주시,20110101
852,감포읍행정복지센터 주차장,간이운동장,38125,경상북도 경주시 감포읍 감포리 56-1 감포읍사무소,,129.5016873,35.80704103,054-779-8003,경상북도,경주시,20130101
853,감포축구장,축구장,780834,경북 경주시 감포읍 전동리 50-1,,129.4941261,35.80209295,054-779-8003,경상북도,경주시,20091231
854,갑골산등산로,간이운동장,,경기도 오산시 초평동,,127.045577,37.148362,031-8036-7632,경기도,오산시,20161231
855,갑곳리 전천후 게이트볼장,전천후게이트볼장,417942,인천 강화군 강화읍 갑곳리 901,,126.49263,37.74029234,032-930-3228,인천광역시,강화군,20170731
856,갑동마을회관,간이운동장,57230,전라남도 장성군 북일면 신흥리 621,,126.8018188,35.3626997,061-390-8477,전라남도,장성군,20230301
857,갑동마을회관,간이운동장,34150,대전광역시 유성구 갑동 387-82 갑동새마을회관,,127.2931919,36.36186173,042-611-2038,대전광역시,유성구,20090101
858,갑동쉼터,간이운동장,34150,대전광역시 유성구 갑동 433-23,갑동433-12,127.2951806,36.36044424,042-611-2555,대전광역시,유성구,20211213
859,갑산1리 마을회관(갑산안길 24),간이운동장,38027,경상북도 경주시 안강읍 갑산리 310-4,,129.2261734,35.97852692,054-779-8033,경상북도,경주시,20180417
860,갑산공단 쉼터(갑산공단길 23),간이운동장,38027,경상북도 경주시 안강읍 갑산리 592-1 동진이공(주),,129.2258554,35.97214401,054-779-8033,경상북도,경주시,20180101
861,갑을골권역 족구장,간이운동장,52131,경상남도 의령군 가례면 개승리 304,,128.2304507,35.38182423,055-570-4404,경상남도,의령군,20120101
862,갑을골권역풋살장,간이운동장,52131,경상남도 의령군 가례면 개승리 304,,128.2304507,35.38182423,055-570-4404,경상남도,의령군,20120101
863,갑을회관운동시설,간이운동장,52131,경상남도 의령군 가례면 갑을리 234-2 갑을마을회관,,128.2200965,35.38894896,055-570-4404,경상남도,의령군,20120101
864,갑천1리게이트볼장,간이운동장,,강원특별자치도 횡성군 청일면,,128.18142,37.570492,033-340-2358,강원특별자치도,횡성군,20161231
865,갑천2리게이트볼장,간이운동장,,강원특별자치도 횡성군 청일면,,128.170017,37.568164,033-340-2358,강원특별자치도,횡성군,20161231
866,갑천2리족구장,간이운동장,,강원특별자치도 횡성군 청일면,,128.169982,37.56811,033-340-2358,강원특별자치도,횡성군,20161231
867,갑천수상스포츠체험장,기타시설,35204,대전광역시 서구 만년동 397,,127.265434,36.49787653,042-724-3234,대전광역시,,20120430
868,갑천실내게이트볼장,전천후게이트볼장,,강원특별자치도 횡성군 갑천면 매일리 815-3,,128.1068892,37.55723399,033-340-5964,강원특별자치도,횡성군,20070417
869,갑천테니스장,간이운동장,,강원특별자치도 횡성군 갑천면,,128.108842,37.561037,033-340-2358,강원특별자치도,횡성군,20161231
870,갓뒤마을,간이운동장,,경북 경주시 황성동 117-2,,129.2178937,35.87087362,054-779-8463,경상북도,경주시,20130101
871,갓바위공원,간이운동장,,전라남도 목포시 이로동,,126.425946,34.79339,061-270-8344,전라남도,목포시,20161231
872,갓안,간이운동장,46050,부산광역시 기장군 철마면 구칠리 산42,,129.1613967,35.2676876,051-709-4124,부산광역시,기장군,20151217
873,갓안공원,간이운동장,,울산광역시 동구 대송동,,129.421539,35.502669,052-209-3745,울산광역시,동구,20161231
874,강경실내수영장,수영장,32942,충청남도 논산시 강경읍 산양리 240-6 강경실내수영장,,127.0228361,36.14682673,041-746-8495,충청남도,논산시,20130731
875,강경읍 대흥리 게이트볼장,기타시설,32939,충청남도 논산시 강경읍 대흥리 29-49,육교밑,127.0185941,36.15639796,041-746-8503,충청남도,논산시,20190403
876,강교1리 무더위쉼터(강교리 441),간이운동장,38028,경상북도 경주시 안강읍 강교리 426,북쪽(강교리 441),129.1389597,35.97623296,054-779-8072,경상북도,경주시,20180101
877,강구 고불봉등산로 체력단련시설,간이운동장,,경상북도 영덕군 강구면,,129.384489,36.408305,054-730-7221,경상북도,영덕군,20161231
878,강구건강활력센터,생활체육관,36456,경상북도 영덕군 강구면 오포리 513 건강활력센터,,129.3795765,36.36144409,054-730-7221,경상북도,영덕군,20240401
879,강구삼사리 체력단련시설,간이운동장,,경상북도 영덕군 강구면,,129.386094,36.349243,054-730-6094,경상북도,영덕군,20161231
880,강구삼사리 체력단련시설,간이운동장,,경상북도 영덕군 강구면,,129.385327,36.351844,054-730-6094,경상북도,영덕군,20161231
881,강구오포리 게이트볼장,간이운동장,,경상북도 영덕군 강구면,,129.377353,36.359932,054-730-6216,경상북도,영덕군,20161231
882,강구오포리 체력단련시설,간이운동장,,경상북도 영덕군 강구면,,129.376415,36.351058,054-730-7232,경상북도,영덕군,20161231
883,강구화전리 체력단련시설,간이운동장,,경상북도 영덕군 강구면,,129.356514,36.36221,054-730-7232,경상북도,영덕군,20161231
884,강나루현대,간이운동장,,서울특별시 강서구 가양3동,,126.857365,37.560395,02-3664-0775,서울특별시,강서구,20161231
885,강남 테니스장,테니스장,23050,인천광역시 강화군 길상면 온수리 605-26,,126.4973784,37.63524173,032-930-3228,인천광역시,강화군,20180124
886,강남 파크골프장,파크골프장,36753,경상북도 안동시 정상동 779,,128.7504868,36.55140602,054-840-3871,경상북도,안동시,20130201
887,강남공원(우두2공원) 동네체육시설,간이운동장,550833,전남 여수시 돌산읍 우두리 1017,,127.7492436,34.72283915,061-659-3269,전라남도,여수시,20141016
888,강남동게이트볼장,간이운동장,24363,강원특별자치도 춘천시 온의동 40-3,,127.7159043,37.87036566,033-250-4232,강원특별자치도,춘천시,20101125
889,강남등산로,간이운동장,760400,경북 안동시 정하동 산 57-3,,128.7285031,36.53142612,054-840-4977,경상북도,안동시,20110101
890,강남복지회관앞쉼터,간이운동장,,경북 안동시 정하동 363,"""","정하동 345-1""",128.7223308,36.5505056,4700000000,4717000000,강남복지회관앞쉼터
891,강남어린이공원,간이운동장,,경기도 부천시 도당동,,126.781684,37.508854,032-340-0880,경기도,부천시,20161231
892,강남어린이도서관 뒤 공원(유아숲),간이운동장,760400,경북 안동시 정하동 258-1,,128.7293461,36.54842177,054-840-4977,경상북도,안동시,20190701
893,강남주민편익시설,기타시설,6340,서울특별시 강남구 일원동 740 강남자원회수시설,,127.0936433,37.49415749,02-3412-2171,서울특별시,,20011201
894,강당골 체육공원,간이운동장,,대명동 산123-1,,128.5966918,35.83104641,053-664-2842,대구광역시,남구,20161222
895,강동(부연)마을 체육시설,간이운동장,,경남 밀양시 무안면 성덕리 176,,128.6546589,35.4416164,055-359-5780,경상남도,밀양시,20150101
896,강동(서은동)마을 체육시설,간이운동장,50408,경상남도 밀양시 무안면 성덕리 626-1,,128.6535873,35.43002722,055-359-5780,경상남도,밀양시,20140101
897,강동동 생활체육시설,간이운동장,,부산광역시 강서구 강동동 135-2,,128.9349546,35.21449307,051-970-4122,부산광역시,강서구,19990101
898,강동문화체육센터,생활체육관,41143,대구광역시 동구 입석동  893-13,,128.6502996,35.88997913,053-983-7330,대구광역시,동구,20140509
899,강동초교 운동장,간이운동장,,강원특별자치도 강릉시 강동면 모전리 384,,128.9633692,37.72453357,033-660-3598,강원특별자치도,강릉시,20170302
900,강릉 아이스아레나,빙상장,25472,강원특별자치도 강릉시 포남동 산90-1 강릉아레나,,128.8970787,37.77931778,033-660-3349,강원특별자치도,강릉시,20230518
901,강릉국민체육센터(국민체육센터(수영장)),수영장,25472,강원특별자치도 강릉시 교동  458-1 국민체육센터,,128.8969864,37.77697789,033-640-4550,강원특별자치도,강릉시,20090314
902,강릉궁도장,국궁장,25451,강원특별자치도 강릉시 대전동 223 강릉 궁도장,,128.859986,37.80246714,033-660-3347,강원특별자치도,강릉시,20231201
903,강릉기성문 앞,간이운동장,210929,강원특별자치도 강릉시 노암동 227-4,,128.9067721,37.75003432,033-640-5986,강원특별자치도,강릉시,20180823
904,강릉승마장,승마장,25626,강원특별자치도 강릉시 강동면 안인진리 309-1,,128.981177,37.72724433,033-660-3355,강원특별자치도,강릉시,19980401
905,강릉실내빙상장,빙상장,25474,강원특별자치도 강릉시 교동 632 강릉컬링센터,,128.8925372,37.77367122,033-640-3347,강원특별자치도,강릉시,19981231
906,강릉야구장,야구장,,강원특별자치도 강릉시 병산동 643-1,,128.9333811,37.77037155,033-640-3355,강원특별자치도,강릉시,20070101
907,강릉영동대 쇼트보조경기장,기타시설,25521,강원특별자치도 강릉시 홍제동 1009 강릉영동대학,,128.855013,37.74742431,033-610-0195,강원특별자치도,,20170930
908,강릉월드구장,축구장,706801,대구 수성구 두산동 624,강릉시 병산동 901,128.929215,37.77028374,033-660-3347,강원특별자치도,강릉시,20011225
909,강릉인공암벽장,인공암벽장,25474,강원특별자치도 강릉시 교동 2-10 강릉종합운동장,,128.8984181,37.77367947,033-660-3349,강원특별자치도,강릉시,20100101
910,강릉장애인사격장,사격장,25474,강원특별자치도 강릉시 교동 2-10,,128.8967842,37.77210085,033-640-5963,강원특별자치도,강릉시,20241220
911,강릉종합운동장,육상경기장,25474,강원특별자치도 강릉시 교동  2-10 강릉종합운동장,,128.8975481,37.77364475,033-640-3347,강원특별자치도,강릉시,19850101
912,강릉최씨율곡파종중토지 옆,간이운동장,210110,강원특별자치도 강릉시 포남동 산 57-1,,128.9048191,37.77880991,033-640-5986,강원특별자치도,강릉시,20180823
913,강릉하키센터,빙상장,25472,강원특별자치도 강릉시 포남동 산105 강릉하키센터,포남동 201,128.9008533,37.77623272,033-520-7725,강원특별자치도,,20180328
914,강림3리게이트볼장,간이운동장,,강원특별자치도 횡성군 강림면,,128.128921,37.363117,033-340-2358,강원특별자치도,횡성군,20161231
915,강림3리족구장,간이운동장,,강원특별자치도 횡성군 강림3리 872,,128.1822966,37.34528928,033-340-2679,강원특별자치도,횡성군,20170302
916,강림4리게이트볼장,간이운동장,,강원특별자치도 횡성군 강림면,,128.137429,37.378921,033-340-2358,강원특별자치도,횡성군,20161231
917,강림5리게이트볼장,간이운동장,,강원특별자치도 횡성군 강림면,,128.124952,37.360214,033-340-2358,강원특별자치도,횡성군,20161231
918,강림5리족구장,간이운동장,,강원특별자치도 횡성군 강림면,,128.127039,37.361053,033-340-2358,강원특별자치도,횡성군,20161231
919,강림테니스장,간이운동장,,강원특별자치도 횡성군 강림면,,128.124952,37.360214,033-340-2358,강원특별자치도,횡성군,20161231
920,강무정,국궁장,51411,경상남도 창원시 성산구 중앙동 1,,128.6663551,35.23250044,055-712-0574,경상남도,창원시,20050205
921,강변 게이트볼장,기타시설,36675,경상북도 안동시 옥야동 424,,128.7200868,36.55684738,054-840-3871,경상북도,안동시,20021201
922,강변 경로회관 앞,간이운동장,38053,경상북도 경주시 서면 심곡리 805-6,강변 경로당,129.0547458,35.89931313,054-779-8235,경상북도,경주시,20160101
923,강변 경로회관 앞 (추가),간이운동장,38053,경상북도 경주시 서면 심곡리 805-6,강변 경로회관,129.054746,35.89931222,054-779-8232,경상북도,경주시,20211014
924,강변 그라운드골프장,기타시설,36675,경상북도 안동시 옥야동 424,,128.7200868,36.55684738,054-840-3871,경상북도,안동시,20211201
925,강변 인라인장,롤러스케이트장,36675,경상북도 안동시 옥야동 424,,128.7208476,36.5571077,054-840-3872,경상북도,안동시,20021201
926,강변 축구장(2),축구장,,경북 안동시 태화동 505,,128.711474,36.55670339,054-840-3872,경상북도,안동시,19000101
927,강변 축구장(3),축구장,,경북 안동시 태화동 505,,128.711474,36.55670339,054-840-3872,경상북도,안동시,19000101
928,강변 축구장(4),축구장,,경북 안동시 태화동 505,,128.711474,36.55670339,054-840-3872,경상북도,안동시,19000101
929,강변 풋살경기장,풋살장,36744,경상북도 안동시 정하동 635,,128.7269626,36.55517666,054-840-3872,경상북도,안동시,20241031
930,강변공원,간이운동장,39529,경상북도 김천시 교동 682-1,,128.0902775,36.12909078,054-420-6757,경상북도,김천시,20200227
931,강변공원,간이운동장,34879,대전광역시 중구 태평동 368,,127.3949107,36.32856779,02-606-7754,대전광역시,중구,20161231
932,강변공원 농구장,간이운동장,,부산 기장군 정관읍 달산리 1245,,129.1951679,35.3202296,051-709-4531,부산광역시,기장군,19000101
933,강변공원 배드민턴장,간이운동장,,부산 기장군 정관읍 달산리 1245,,129.1951679,35.3202296,051-709-4531,부산광역시,기장군,19000101
934,강변공원1,간이운동장,770030,경북 영천시 문외동 317,,128.9364148,35.96909203,054-339-7164,경상북도,영천시,20200302
935,강변공원2,간이운동장,770040,경북 영천시 과전동 143,,128.9312417,35.96532241,054-339-7164,경상북도,영천시,20200302
936,강변공원게이트볼장,간이운동장,,대전광역시 중구 태평2동,,127.394761,36.328522,02-606-7633,대전광역시,중구,20161231
937,강변농구장,기타시설,36663,경상북도 안동시 태화동 841,,128.707694,36.55435491,054-840-3871,경상북도,안동시,20211201
938,강변리틀야구장,야구장,41480,대구광역시 북구 서변동 1290-4,,127.265434,36.49787653,053-803-8324,대구광역시,,20071220
939,강변마을,간이운동장,760904,경북 안동시 태화동 294-2,,128.7160636,36.55984562,054-840-4841,경상북도,안동시,20180101
940,강변야구장,야구장,730030,경북 구미시 공단동 산 5,,128.3935247,36.11378469,054-480-5024,경상북도,구미시,20161231
941,강변조각공원,간이운동장,740978,경북 김천시 신음동 1056-2,,128.116605,36.1303802,054-420-6757,경상북도,김천시,20200227
942,강변파크골프장,기타시설,41480,대구광역시 북구 서변동 1290-4,,127.265434,36.49787653,053-606-8368,대구광역시,,20080411
943,강변환경공원 축구장,축구장,49470,부산광역시 사하구 신평동 659-2,남부하수처리장,128.9539389,35.08310196,759-790-1335,부산광역시,,20100301
944,강변힐스테이트,간이운동장,,서울특별시 강서구 염창동,,126.874071,37.551811,02-3664-0041,서울특별시,강서구,20161231
